名称,大类,中类,经度,纬度,省份,地级市,区县
南汇嘴观海生态公园,旅游景点,公园,121.971697,30.88122,上海市,上海市,浦东新区
南汇嘴观海公园,交通设施,公交站,121.971778,30.882131,上海市,上海市,浦东新区
横沙岛湿地公园,旅游景点,景点,121.888608,31.33477,上海市,上海市,崇明区
东滩湿地公园,旅游景点,公园,121.951271,31.517016,上海市,上海市,崇明区
上海廊下郊野生态公园,旅游景点,公园,121.164784,30.776456,上海市,上海市,金山区
宠四季宠物主题生态公园,旅游景点,公园,121.157025,30.786733,上海市,上海市,金山区
花开海上生态公园,旅游景点,其他,121.118545,30.886977,上海市,上海市,金山区
松江泖港湿地公园,旅游景点,公园,121.125535,30.922978,上海市,上海市,松江区
惠缘生态公园,休闲娱乐,农家乐,121.226147,30.824665000000003,上海市,上海市,金山区
上海漕泾郊野公园,旅游景点,公园,121.396732,30.827576,上海市,上海市,金山区
米市渡松南郊野公园,旅游景点,公园,121.250418,30.970458,上海市,上海市,松江区
米市渡松南郊野公园,旅游景点,景点,121.250424,30.970496,上海市,上海市,松江区
青西郊野公园,交通设施,公交站,120.993339,31.047782,上海市,上海市,青浦区
太浦河白渔荡湿地公园,旅游景点,公园,120.972885,31.021077,上海市,上海市,青浦区
青西郊野公园,旅游景点,公园,120.996419,31.068545,上海市,上海市,青浦区
上海人文纪念生态公园,旅游景点,公园,121.134579,31.110491,上海市,上海市,青浦区
凯博生态公园,休闲娱乐,其他,121.128667,31.122795,上海市,上海市,青浦区
南闸生态公园,旅游景点,公园,121.531792,30.821075,上海市,上海市,奉贤区
碧海金沙索道滑水生态公园,旅游景点,公园,121.55138,30.81819,上海市,上海市,奉贤区
东海森林生态公园,旅游景点,其他,121.519115,30.817655,上海市,上海市,奉贤区
上海海湾国家森林公园,旅游景点,景点,121.6906,30.861557,上海市,上海市,奉贤区
海湾国家森林公园,交通设施,公交站,121.678841,30.866688,上海市,上海市,奉贤区
二桥村党建微生态公园,旅游景点,公园,121.652849,30.95848,上海市,上海市,奉贤区
奉贤滩涂区湿地公园,旅游景点,景点,121.590805,30.832962,上海市,上海市,奉贤区
滴水湖儿童郊外生态公园,旅游景点,公园,121.938635,30.885898,上海市,上海市,浦东新区
春花秋色城市生态公园,旅游景点,公园,121.951813,30.882186,上海市,上海市,浦东新区
滴水湖儿童生态公园,旅游景点,公园,121.948903,30.88805,上海市,上海市,浦东新区
南汇新城春花秋色生态公园,旅游景点,公园,121.950104,30.877837,上海市,上海市,浦东新区
人工湿地公园,旅游景点,其他,121.952592,30.882466,上海市,上海市,浦东新区
南汇新城星空之境海绵生态公园,旅游景点,公园,121.930225,30.915451,上海市,上海市,浦东新区
上海玄圃生态公园,运动健身,其他,121.854036,31.024365,上海市,上海市,浦东新区
玄圃石斛生态公园,运动健身,其他,121.853822,31.024045,上海市,上海市,浦东新区
上海引华农庄生态公园,运动健身,其他,121.72347,30.986926,上海市,上海市,浦东新区
潘石生态公园,旅游景点,公园,121.637192,31.419853,上海市,上海市,崇明区
晨光农业生态公园,休闲娱乐,其他,121.806228,31.534384,上海市,上海市,崇明区
古银杏生态公园,旅游景点,公园,121.651401,31.531564,上海市,上海市,崇明区
鲁玙市民生态公园,旅游景点,公园,121.694856,31.56957,上海市,上海市,崇明区
鲁玙科普生态公园,旅游景点,公园,121.698836,31.568236,上海市,上海市,崇明区
黄杨生态公园,旅游景点,公园,121.699827,31.569566,上海市,上海市,崇明区
堡镇市民生态公园,旅游景点,公园,121.621302,31.52943,上海市,上海市,崇明区
崇明岛稻和湾生态公园,休闲娱乐,农家乐,121.648898,31.526702,上海市,上海市,崇明区
东滩生态公园,公司企业,农林牧渔,121.882927,31.454565,上海市,上海市,崇明区
陈家镇自行车生态公园,旅游景点,公园,121.84054,31.482149,上海市,上海市,崇明区
自行车主题生态公园,旅游景点,公园,121.839568,31.482731,上海市,上海市,崇明区
弘福生态公园,公司企业,农林牧渔,121.852305,31.564952,上海市,上海市,崇明区
施门种地户外垂钓生态公园,休闲娱乐,农家乐,121.614144,31.636413,上海市,上海市,崇明区
紫海鹭缘主题生态公园,旅游景点,公园,121.496431,31.672037000000003,上海市,上海市,崇明区
上海蟠龙生态公园,酒店住宿,其他,121.500914,31.655282,上海市,上海市,崇明区
新征生态公园,休闲娱乐,农家乐,121.68612,31.628881,上海市,上海市,崇明区
没顶生态公园,旅游景点,公园,121.77857,31.592322,上海市,上海市,崇明区
龙轩生态公园,休闲娱乐,农家乐,121.776044,31.606226000000003,上海市,上海市,崇明区
合欢主题生态公园,旅游景点,公园,121.420775,31.720762,上海市,上海市,崇明区
新村桂花科普生态公园,旅游景点,公园,121.381679,31.818618,上海市,上海市,崇明区
西沙明珠湖景区-明珠湖生态公园,旅游景点,公园,121.25262,31.736030000000003,上海市,上海市,崇明区
世界十大湿地公园,旅游景点,其他,121.236457,31.722262,上海市,上海市,崇明区
来钿休闲生态公园,餐饮美食,其他,121.244182,31.742311,上海市,上海市,崇明区
市民健康生态公园,旅游景点,公园,121.219366,31.767543,上海市,上海市,崇明区
豫轩熙生态公园,运动健身,其他,121.244727,31.785272,上海市,上海市,崇明区
明珠湖公园,交通设施,公交站,121.255706,31.752548,上海市,上海市,崇明区
村民生态公园,旅游景点,公园,121.30894,31.734531,上海市,上海市,崇明区
大平村村民生态公园,旅游景点,公园,121.311613,31.767361,上海市,上海市,崇明区
ZH农家生态公园,休闲娱乐,农家乐,121.267925,31.767718,上海市,上海市,崇明区
健康主题生态公园,旅游景点,公园,121.294577,31.814933,上海市,上海市,崇明区
新村市民体育生态公园,旅游景点,公园,121.33189,31.828399,上海市,上海市,崇明区
崇明·新村健康主题生态公园,旅游景点,公园,121.331993,31.828745,上海市,上海市,崇明区
雪浪湖生态公园,休闲娱乐,农家乐,121.089739,30.929119,上海市,上海市,松江区
青浦百汇生态公园,运动健身,其他,121.028191,30.947283,上海市,上海市,青浦区
菖蒲生态公园,旅游景点,公园,121.012489,30.850319,上海市,上海市,金山区
法治主题公园,旅游景点,公园,121.312175,30.7545,上海市,上海市,金山区
一谔生态公园,旅游景点,公园,121.31335,30.751997,上海市,上海市,金山区
鲁堰村村民生态公园,旅游景点,公园,121.303795,30.807359,上海市,上海市,金山区
上海锦雄生态公园,休闲娱乐,农家乐,121.238034,30.766289,上海市,上海市,金山区
田阳生态公园,公司企业,农林牧渔,121.183478,30.801215,上海市,上海市,金山区
马棚先锋生态公园,旅游景点,公园,121.340232,30.771087,上海市,上海市,金山区
中兴村善治主题生态公园,旅游景点,公园,121.34104,30.770316,上海市,上海市,金山区
护塘法治生态公园,旅游景点,公园,121.3799,30.796993,上海市,上海市,金山区
侬佳生态公园,运动健身,其他,121.396123,30.869649000000003,上海市,上海市,奉贤区
临海村微生态公园,旅游景点,公园,121.436184,30.827054,上海市,上海市,奉贤区
贝港河生态公园,旅游景点,公园,121.467799,30.861051,上海市,上海市,奉贤区
柘林生态公园,旅游景点,公园,121.467826,30.866398,上海市,上海市,奉贤区
六墩生态公园,旅游景点,公园,121.466273,30.897498,上海市,上海市,奉贤区
庄行生态公园,旅游景点,公园,121.423059,30.906316,上海市,上海市,奉贤区
三桑生态公园,旅游景点,公园,121.469472,30.961964,上海市,上海市,奉贤区
美仁趣味钓虾生态公园,运动健身,其他,121.401817,30.944015,上海市,上海市,奉贤区
吕巷水果生态公园,旅游景点,公园,121.21429,30.83386,上海市,上海市,金山区
白漾村法治生态公园,旅游景点,公园,121.237656,30.853461,上海市,上海市,金山区
同建生态公园,休闲娱乐,其他,121.325566,30.91327,上海市,上海市,松江区
叶榭桂花公园,旅游景点,公园,121.319708,30.931521,上海市,上海市,松江区
广富林郊野生态公园,旅游景点,公园,121.183509,31.060986,上海市,上海市,松江区
辰山户外生态公园,旅游景点,公园,121.179543,31.065274,上海市,上海市,松江区
万魅足球生态公园,运动健身,足球,121.247543,31.074981,上海市,上海市,松江区
江川西路生态公园,休闲娱乐,其他,121.33332,30.986097,上海市,上海市,闵行区
马桥森林体育生态公园,旅游景点,其他,121.347453,31.029546,上海市,上海市,闵行区
小元国农业生态公园,公司企业,农林牧渔,121.476941,31.003389,上海市,上海市,奉贤区
滨江生态公园,旅游景点,公园,121.471789,31.016616,上海市,上海市,闵行区
浦江第一湾公园,旅游景点,公园,121.472697,31.014571,上海市,上海市,闵行区
厚湃尔足球生态公园,旅游景点,景点,121.488161,31.05921,上海市,上海市,闵行区
厚湃尔体育生态公园,旅游景点,公园,121.48907,31.058856,上海市,上海市,闵行区
蓝天白云生态公园,休闲娱乐,其他,121.457709,31.084485,上海市,上海市,闵行区
草莓主题生态公园,休闲娱乐,农家乐,121.184291,31.235168,上海市,上海市,青浦区
天茸生态公园,休闲娱乐,其他,121.176115,31.227564,上海市,上海市,青浦区
天茸菌菇生态公园,休闲娱乐,农家乐,121.183623,31.227746,上海市,上海市,青浦区
小蒸生态公园,旅游景点,公园,121.078819,30.987041,上海市,上海市,青浦区
石湖荡镇控烟主题生态公园,旅游景点,公园,121.118228,30.985889,上海市,上海市,松江区
小昆山健康主题生态公园,旅游景点,公园,121.119679,31.033286,上海市,上海市,松江区
昆秀水产生态公园,休闲娱乐,农家乐,121.112362,31.047455,上海市,上海市,松江区
虹珠生态公园,休闲娱乐,农家乐,121.033152,31.105186,上海市,上海市,青浦区
淀山湖大道生态公园,旅游景点,公园,121.057774,31.130088,上海市,上海市,青浦区
四季百果园悠夫生态公园,休闲娱乐,农家乐,121.057929,31.134366,上海市,上海市,青浦区
万亩春生态公园,运动健身,其他,121.152206,31.225249,上海市,上海市,青浦区
朱新村新凨生态公园,旅游景点,公园,121.698933,30.884585,上海市,上海市,奉贤区
蓝湾生态公园,旅游景点,公园,121.745157,30.876962,上海市,上海市,奉贤区
四团幸福生态公园,旅游景点,公园,121.737803,30.93455,上海市,上海市,奉贤区
魔都生态公园,旅游景点,公园,121.530472,30.876825,上海市,上海市,奉贤区
护民村草地生态公园,旅游景点,公园,121.632786,30.890793,上海市,上海市,奉贤区
卫季村党建微生态公园,旅游景点,水族馆,121.601493,30.902381,上海市,上海市,奉贤区
013体育生态公园,运动健身,综合体育馆,121.832383,30.898087,上海市,上海市,浦东新区
上海滨海森林湿地公园,旅游景点,景点,121.910885,30.963248,上海市,上海市,浦东新区
滨海生态公园,旅游景点,公园,121.911915,30.97062,上海市,上海市,浦东新区
书院社区体育公园,旅游景点,公园,121.859462,30.980055,上海市,上海市,浦东新区
雷锋生态公园,旅游景点,公园,121.811114,31.095233,上海市,上海市,浦东新区
陶家塘生态公园,休闲娱乐,农家乐,121.518433,31.009726,上海市,上海市,闵行区
陶家塘生态公园,餐饮美食,中国菜,121.518422,31.009674,上海市,上海市,闵行区
明星村六岔道生态公园,旅游景点,公园,121.542866,30.976562,上海市,上海市,奉贤区
新城·千禧公园,商务住宅,住宅区,121.508847,31.024414,上海市,上海市,闵行区
浦江森林湿地公园,旅游景点,公园,121.517457,31.047167,上海市,上海市,闵行区
浦江郊野公园-生态湿地公园,旅游景点,其他,121.505701,31.047621000000003,上海市,上海市,闵行区
墩头生态公园,旅游景点,公园,121.635774,30.986068,上海市,上海市,奉贤区
盛妙生态公园,休闲娱乐,农家乐,121.638199,31.06556,上海市,上海市,浦东新区
周浦花海生态公园,旅游景点,公园,121.645584,31.117593000000003,上海市,上海市,浦东新区
桃米乐野餐生态公园,运动健身,其他,121.553276,31.051663,上海市,上海市,浦东新区
绿色生态公园,休闲娱乐,农家乐,121.684368,31.012383,上海市,上海市,浦东新区
金团生态公园,旅游景点,公园,121.753739,30.976747,上海市,上海市,浦东新区
多利农庄生态公园,休闲娱乐,其他,121.773066,30.975577,上海市,上海市,浦东新区
多利农庄生态公园,旅游景点,其他,121.77309,30.975555,上海市,上海市,浦东新区
竹隐江南生态公园,休闲娱乐,其他,121.802164,31.028485,上海市,上海市,浦东新区
微型生态公园,旅游景点,公园,121.802395,31.03634,上海市,上海市,浦东新区
张高渔业生态公园,运动健身,其他,121.733276,31.018906,上海市,上海市,浦东新区
滨河绿地生态公园,旅游景点,公园,121.741133,31.068136,上海市,上海市,浦东新区
艺泰安邦花园-体育生态公园,旅游景点,公园,121.705547,31.060175,上海市,上海市,浦东新区
六灶健身生态公园,旅游景点,公园,121.709306,31.110709,上海市,上海市,浦东新区
淼利生态公园,休闲娱乐,其他,121.660656,31.1003,上海市,上海市,浦东新区
淼利生态公园,酒店住宿,其他,121.66062,31.100307,上海市,上海市,浦东新区
光明生态公园,旅游景点,广场,121.671439,31.146892,上海市,上海市,浦东新区
上海薰衣草公园,旅游景点,公园,121.674397,31.142795,上海市,上海市,浦东新区
上海薰衣草公园,旅游景点,植物园,121.674378,31.142763,上海市,上海市,浦东新区
祝桥镇门球主题生态公园,旅游景点,公园,121.747737,31.18038,上海市,上海市,浦东新区
合庆郊野公园,旅游景点,公园,121.715876,31.262325,上海市,上海市,浦东新区
共青国家森林公园,旅游景点,景点,121.551723,31.318888,上海市,上海市,杨浦区
滨江湿地公园,旅游景点,其他,121.511939,31.393251,上海市,上海市,宝山区
长兴岛郊野生态公园,旅游景点,景点,121.709932,31.402162,上海市,上海市,崇明区
前卫1966郊野生态公园,旅游景点,公园,121.706263,31.410224,上海市,上海市,崇明区
C-PARK运动生态公园,休闲娱乐,其他,121.787439,31.524561,上海市,上海市,崇明区
军谊生态公园,购物消费,花鸟鱼虫,121.685473,31.558306,上海市,上海市,崇明区
新隆村生态公园,旅游景点,公园,121.532144,31.617143,上海市,上海市,崇明区
外冈郊野公园,旅游景点,公园,121.147641,31.357439000000003,上海市,上海市,嘉定区
法治主题公园,旅游景点,公园,121.149676,31.352953,上海市,上海市,嘉定区
旺和苑生态公园,旅游景点,公园,121.171125,31.399518,上海市,上海市,嘉定区
马陆葡萄主题公园,休闲娱乐,游乐场,121.318303,31.378665,上海市,上海市,嘉定区
马陆葡萄主题公园,旅游景点,其他,121.318242,31.378663,上海市,上海市,嘉定区
嘉北郊野公园,旅游景点,公园,121.19687,31.357435,上海市,上海市,嘉定区
郊野生态公园,旅游景点,景点,121.35591,31.456927,上海市,上海市,宝山区
民众村稻虾生态公园,运动健身,其他,121.367662,31.449576,上海市,上海市,宝山区
白鹭生态公园,旅游景点,公园,121.346107,31.455321,上海市,上海市,宝山区
一水间花卉生态公园,休闲娱乐,农家乐,121.387955,31.437561,上海市,上海市,宝山区
华亭哈密瓜主题公园,旅游景点,植物园,121.306332,31.485196,上海市,上海市,嘉定区
英峰生态公园,旅游景点,其他,121.289495,31.483058,上海市,上海市,嘉定区
田佑生态公园,运动健身,其他,121.484564,31.613307,上海市,上海市,崇明区
建设镇健康主题生态公园,旅游景点,公园,121.490619,31.635368,上海市,上海市,崇明区
团结村村民生态公园,旅游景点,公园,121.423556,31.671856,上海市,上海市,崇明区
上海崇明欢宿高家庄度假生态公园,酒店住宿,其他,121.421032,31.681615,上海市,上海市,崇明区
森林公园,交通设施,公交站,121.48045,31.676086,上海市,上海市,崇明区
胜林生态公园,旅游景点,公园,121.457592,31.672509,上海市,上海市,崇明区
锦旺农业生态公园,休闲娱乐,农家乐,121.471062,31.675438,上海市,上海市,崇明区
协兴村村民生态公园,旅游景点,公园,121.420915,31.707305,上海市,上海市,崇明区
双津村村民生态公园,旅游景点,公园,121.39047,31.668174,上海市,上海市,崇明区
庙镇绿地生态公园,旅游景点,公园,121.354759,31.710291,上海市,上海市,崇明区
枫溪生态公园,旅游景点,公园,121.017683,30.885602,上海市,上海市,金山区
全民健康主题生态公园,旅游景点,公园,121.071998,30.930814,上海市,上海市,松江区
张堰生态公园,旅游景点,公园,121.283353,30.803651,上海市,上海市,金山区
辛辛啪村生态公园,旅游景点,公园,121.254161,30.777686,上海市,上海市,金山区
麦子篮球公园,运动健身,篮球,121.365575,30.738838,上海市,上海市,金山区
双拥主题生态公园,旅游景点,公园,121.347824,30.741182,上海市,上海市,金山区
马棚文化生态公园,旅游景点,公园,121.338267,30.767056,上海市,上海市,金山区
健康主题生态公园,旅游景点,公园,121.403125,30.796709,上海市,上海市,金山区
质量科普生态公园,旅游景点,公园,121.3973,30.798954,上海市,上海市,金山区
正阳体育生态公园,旅游景点,公园,121.482796,30.906729,上海市,上海市,奉贤区
南上海运河生态公园,旅游景点,公园,121.471962,30.922731,上海市,上海市,奉贤区
和合社区生态公园,旅游景点,公园,121.486027,30.920424,上海市,上海市,奉贤区
德园社区生态公园,旅游景点,公园,121.485081,30.926269,上海市,上海市,奉贤区
圣泉农庄生态公园,休闲娱乐,农家乐,121.236926,30.837656,上海市,上海市,金山区
亭林生态公园,旅游景点,公园,121.312488,30.882036000000003,上海市,上海市,金山区
玲珑宠物生态公园,旅游景点,动物园,121.275434,30.922254,上海市,上海市,松江区
泖港镇健康主题生态公园,旅游景点,公园,121.214115,30.931925,上海市,上海市,松江区
雨坤体育生态公园,运动健身,其他,121.241819,31.002359,上海市,上海市,松江区
醉白池公园,旅游景点,公园,121.230974,31.001739,上海市,上海市,松江区
思贤生态公园,旅游景点,公园,121.223421,31.030237,上海市,上海市,松江区
申磊足球生态公园,运动健身,足球,121.243839,31.04008,上海市,上海市,松江区
方松体育生态公园,旅游景点,公园,121.231938,31.041428,上海市,上海市,松江区
财富兴园·国际企业生态公园,商务住宅,产业园,121.301232,30.997697,上海市,上海市,松江区
广富林东路休闲生态公园,旅游景点,公园,121.263207,31.053188,上海市,上海市,松江区
上海健川富硒生态公园,运动健身,其他,121.290448,31.070324,上海市,上海市,松江区
陈春路口袋生态公园,旅游景点,公园,121.315191,31.068247,上海市,上海市,松江区
河图生态公园,商务住宅,产业园,121.320437,31.098235,上海市,上海市,松江区
九科绿洲生态公园,旅游景点,公园,121.328216,31.107908,上海市,上海市,松江区
吴家浜生态公园,旅游景点,公园,121.304858,31.111319,上海市,上海市,松江区
竞健青少年篮球公园,运动健身,篮球,121.256309,31.088942,上海市,上海市,松江区
森林公园,交通设施,公交站,121.199915,31.090075,上海市,上海市,松江区
玛雅海滩水公园,交通设施,公交站,121.209159,31.095379,上海市,上海市,松江区
上海玛雅海滩水公园,运动健身,水上运动,121.209021,31.093779,上海市,上海市,松江区
上海月湖雕塑生态公园,旅游景点,景点,121.206117,31.102683,上海市,上海市,松江区
洛克公园,运动健身,篮球,121.360925,30.998542,上海市,上海市,闵行区
闵行南部科创生态公园,旅游景点,公园,121.406968,31.023883,上海市,上海市,闵行区
金塔公园,旅游景点,公园,121.410161,31.038048,上海市,上海市,闵行区
马桥古文化遗址生态公园,旅游景点,公园,121.391289,31.034612,上海市,上海市,闵行区
马桥生态公园,旅游景点,公园,121.369863,31.031146000000003,上海市,上海市,闵行区
星乐生态公园,旅游景点,公园,121.472627,31.037248,上海市,上海市,闵行区
万科青藤生态公园,商务住宅,其他,121.472109,31.03489,上海市,上海市,闵行区
吴泾公园,旅游景点,公园,121.477556,31.046824,上海市,上海市,闵行区
吴泾公园,交通设施,公交站,121.478664,31.045634,上海市,上海市,闵行区
梅陇镇法治文化生态公园,旅游景点,公园,121.438846,31.067559,上海市,上海市,闵行区
休闲生态公园,旅游景点,公园,121.447706,31.080351,上海市,上海市,闵行区
大众公园,汽车相关,其他,121.443548,31.081809,上海市,上海市,闵行区
虎方足球生态公园,运动健身,其他,121.453559,31.053247,上海市,上海市,闵行区
梅陇镇法治口袋生态公园,旅游景点,公园,121.454355,31.098347,上海市,上海市,闵行区
丁连村民生态公园,旅游景点,公园,121.480816,31.096116,上海市,上海市,闵行区
梅陇国防教育主题公园,旅游景点,公园,121.425014,31.088681,上海市,上海市,闵行区
永联文化生态生态公园,旅游景点,公园,121.442866,31.100741,上海市,上海市,闵行区
旗忠生态公园,旅游景点,公园,121.349772,31.058115,上海市,上海市,闵行区
旗忠公园,交通设施,公交站,121.350631,31.057751,上海市,上海市,闵行区
颛联休闲生态公园,旅游景点,公园,121.403056,31.064469,上海市,上海市,闵行区
Realpark king sports体育生态公园,旅游景点,植物园,121.404503,31.091272,上海市,上海市,闵行区
洛克生态公园,购物消费,其他,121.404512,31.091556,上海市,上海市,闵行区
上海青春生态办生态公园,商务住宅,产业园,121.349077,31.119066,上海市,上海市,闵行区
闵行体育公园,旅游景点,公园,121.370888,31.143127,上海市,上海市,闵行区
闵行体育公园,交通设施,公交站,121.366246,31.144173,上海市,上海市,闵行区
优体足球生态公园,运动健身,足球,121.373416,31.136597,上海市,上海市,闵行区
李秋平篮球公园,运动健身,篮球,121.381409,31.140092,上海市,上海市,闵行区
前滩体育生态公园,旅游景点,公园,121.464879,31.146525,上海市,上海市,浦东新区
前滩休闲生态公园,旅游景点,公园,121.466148,31.150889,上海市,上海市,浦东新区
飞梦体育生态公园,运动健身,综合体育馆,121.464114,31.145858,上海市,上海市,浦东新区
济阳生态公园,旅游景点,公园,121.479901,31.169142,上海市,上海市,浦东新区
世博文化生态公园,旅游景点,公园,121.476796,31.179112,上海市,上海市,浦东新区
后滩生态公园,旅游景点,公园,121.472713,31.183567,上海市,上海市,浦东新区
世博公园,生活服务,公厕,121.481076,31.185966,上海市,上海市,浦东新区
寻丰生态公园,旅游景点,公园,121.4886,31.197374,上海市,上海市,黄浦区
中华民族复兴主题生态公园,旅游景点,公园,121.485074,31.192546,上海市,上海市,黄浦区
黄浦滨江滑板极限生态公园,运动健身,其他,121.490158,31.194164,上海市,上海市,黄浦区
滨江滑板公园,旅游景点,公园,121.467813,31.185949,上海市,上海市,徐汇区
木马生态公园,旅游景点,公园,121.463135,31.181656,上海市,上海市,徐汇区
简单生活生态公园,旅游景点,水族馆,121.463211,31.183537,上海市,上海市,徐汇区
长宁虹桥体育生态公园,旅游景点,公园,121.346016,31.221291,上海市,上海市,长宁区
MOREPRK factory 滑板生态公园,运动健身,其他,121.35126,31.241423,上海市,上海市,嘉定区
一亩万福生态公园,休闲娱乐,农家乐,121.188348,31.166144,上海市,上海市,青浦区
华宝路小生态公园,旅游景点,公园,121.327245,31.163684,上海市,上海市,闵行区
华翔绿地公园,旅游景点,公园,121.32845,31.172568,上海市,上海市,闵行区
鑫牛生态公园,休闲娱乐,农家乐,121.261861,31.203434,上海市,上海市,青浦区
聚动力星空足球生态公园,旅游景点,水族馆,121.315664,31.220246,上海市,上海市,闵行区
聚动力星空足球生态公园,运动健身,足球,121.315608,31.220251,上海市,上海市,闵行区
启望老克勒足球生态公园,运动健身,足球,121.320865,31.223396,上海市,上海市,闵行区
爱特足球生态公园,运动健身,足球,121.30923,31.232552,上海市,上海市,嘉定区
鲜缘葡萄采摘生态公园,休闲娱乐,农家乐,121.259745,31.250164,上海市,上海市,闵行区
重固体育生态公园,旅游景点,公园,121.18917,31.202566,上海市,上海市,青浦区
华隆生态公园,旅游景点,公园,121.23007,31.220165,上海市,上海市,青浦区
百蒂凯现代生态公园,商务住宅,产业园,121.232479,31.265578,上海市,上海市,嘉定区
百蒂凯现代农业生态公园,休闲娱乐,农家乐,121.232357,31.26658,上海市,上海市,嘉定区
黄渡公园,旅游景点,公园,121.216497,31.268421,上海市,上海市,嘉定区
佘香生态公园,商务住宅,产业园,121.1381,31.086041,上海市,上海市,松江区
朱家角镇市民广场体育生态公园,旅游景点,公园,121.044933,31.106732,上海市,上海市,青浦区
青溪生态公园,旅游景点,公园,121.115732,31.140378,上海市,上海市,青浦区
香雪生态公园,旅游景点,公园,121.106752,31.139507,上海市,上海市,青浦区
青浦春暖绿地生态公园,旅游景点,公园,121.160079,31.148331,上海市,上海市,青浦区
爱多邦生态公园,旅游景点,公园,121.15591,31.144875,上海市,上海市,青浦区
极限运动滑板生态公园,运动健身,其他,121.160771,31.166405,上海市,上海市,青浦区
惠尔现代物流生态公园,生活服务,物流,121.164422,31.17346,上海市,上海市,青浦区
环城水系生态公园,旅游景点,公园,121.113556,31.163612,上海市,上海市,青浦区
仨分青少年篮球公园,运动健身,篮球,121.10729,31.168908,上海市,上海市,青浦区
沁园湖生态公园,旅游景点,公园,121.09837,31.17181,上海市,上海市,青浦区
Max体育生态公园,运动健身,综合体育馆,121.135792,31.161242,上海市,上海市,青浦区
波仕顿阳光生态公园,旅游景点,公园,121.736819,30.964639,上海市,上海市,浦东新区
南门港生态公园,旅游景点,公园,121.649962,30.910331000000003,上海市,上海市,奉贤区
奉城中心公园,旅游景点,公园,121.654235,30.915984,上海市,上海市,奉贤区
海塘生态公园,旅游景点,公园,121.492486,30.834797,上海市,上海市,奉贤区
星火公园,旅游景点,公园,121.56397,30.854033,上海市,上海市,奉贤区
新张村党建微生态公园,旅游景点,水族馆,121.537413,30.870634,上海市,上海市,奉贤区
上海申隆生态公园,旅游景点,景点,121.573947,30.891543,上海市,上海市,奉贤区
塘外村法治微生态公园,旅游景点,公园,121.621039,30.902105,上海市,上海市,奉贤区
春来市民微生态公园,旅游景点,公园,121.647865,30.945847,上海市,上海市,奉贤区
星空生态公园,旅游景点,水族馆,121.512153,30.926186,上海市,上海市,奉贤区
上海之鱼泡泡生态公园,旅游景点,公园,121.501443,30.926569,上海市,上海市,奉贤区
雕塑艺术生态公园,旅游景点,公园,121.50323,30.929561,上海市,上海市,奉贤区
青年艺术公园,旅游景点,公园,121.504485,30.933771,上海市,上海市,奉贤区
年丰公园,交通设施,公交站,121.493464,30.932386,上海市,上海市,奉贤区
祺圣之星篮球公园,运动健身,其他,121.491936,30.935374,上海市,上海市,奉贤区
朱店村党建微生态公园,旅游景点,水族馆,121.5547,30.919657,上海市,上海市,奉贤区
沙贝微生态公园,旅游景点,公园,121.52759,30.944789,上海市,上海市,奉贤区
芦潮港公园,旅游景点,景点,121.862904,30.868916,上海市,上海市,浦东新区
大芦东路口袋生态公园,旅游景点,公园,121.852331,30.878872,上海市,上海市,浦东新区
海客生态公园,旅游景点,公园,121.909652,30.864499,上海市,上海市,浦东新区
二环城市生态公园,旅游景点,其他,121.92075,30.893915,上海市,上海市,浦东新区
临港艺术体育生态公园,科教文化,培训单位,121.910956,30.901022,上海市,上海市,浦东新区
二环城市生态公园,运动健身,其他,121.923607,30.909727,上海市,上海市,浦东新区
二环城市生态公园,购物消费,其他,121.922599,30.909375,上海市,上海市,浦东新区
二环城市生态公园,运动健身,其他,121.92306,30.910192,上海市,上海市,浦东新区
上海海昌海洋公园,旅游景点,水族馆,121.905728,30.912633,上海市,上海市,浦东新区
上海海昌海洋公园,旅游景点,水族馆,121.911819,30.914539,上海市,上海市,浦东新区
红星美凯龙·爱琴海购物公园,购物消费,百货商场,121.914878,30.918468,上海市,上海市,浦东新区
社区生态公园,旅游景点,公园,121.809907,30.963869,上海市,上海市,浦东新区
初心生态公园,旅游景点,公园,121.868225,30.98798,上海市,上海市,浦东新区
老港生态公园,旅游景点,公园,121.838564,31.035551,上海市,上海市,浦东新区
健康主题生态公园,旅游景点,公园,121.841807,31.037,上海市,上海市,浦东新区
元音生态公园,旅游景点,公园,121.509598,30.975878,上海市,上海市,奉贤区
樽文生态公园,休闲娱乐,农家乐,121.515213,31.012625,上海市,上海市,闵行区
美式篮球公园,运动健身,篮球,121.637478,31.02604,上海市,上海市,浦东新区
航东村口袋生态公园,旅游景点,公园,121.602274,31.033597,上海市,上海市,浦东新区
ABC美式篮球公园,运动健身,篮球,121.593862,31.042756,上海市,上海市,浦东新区
滨河生态公园,旅游景点,公园,121.592933,31.084267,上海市,上海市,浦东新区
航城生态公园,旅游景点,公园,121.596992,31.079532,上海市,上海市,浦东新区
上海浦江郊野公园,旅游景点,公园,121.49633,31.057782,上海市,上海市,闵行区
上海浦江郊野公园,旅游景点,公园,121.511755,31.055087,上海市,上海市,闵行区
花好月元生态公园,旅游景点,公园,121.496111,31.087778,上海市,上海市,闵行区
幸福生态公园,旅游景点,公园,121.772499,31.025663,上海市,上海市,浦东新区
莱恩体育篮球公园,运动健身,篮球,121.75293,31.034731,上海市,上海市,浦东新区
下盐路听达路口袋生态公园,旅游景点,动物园,121.75545,31.073283,上海市,上海市,浦东新区
海天湖生态公园,旅游景点,公园,121.763049,31.100889,上海市,上海市,浦东新区
类鹤蟑蝾湿地公园,旅游景点,其他,121.721961,31.053273,上海市,上海市,浦东新区
象园生态公园,运动健身,其他,121.706425,31.086247,上海市,上海市,浦东新区
比斯特上海购物村-翱星生态公园,旅游景点,公园,121.678071,31.140252,上海市,上海市,浦东新区
六团水景生态公园,旅游景点,公园,121.726758,31.156453,上海市,上海市,浦东新区
四季生态公园,旅游景点,公园,121.708599,31.153835,上海市,上海市,浦东新区
八灶格邦生态公园,旅游景点,公园,121.717758,31.155904,上海市,上海市,浦东新区
申佳真草足球生态公园,运动健身,其他,121.692888,31.158013,上海市,上海市,浦东新区
浦东川沙健康生态公园,旅游景点,公园,121.690346,31.168603,上海市,上海市,浦东新区
环东生态公园,休闲娱乐,其他,121.657013,31.175602,上海市,上海市,浦东新区
环东生态公园,旅游景点,公园,121.654826,31.183226,上海市,上海市,浦东新区
民利生态公园,休闲娱乐,农家乐,121.730584,31.175949,上海市,上海市,浦东新区
蔡路生态公园,旅游景点,公园,121.733254,31.213416,上海市,上海市,浦东新区
王港公园,旅游景点,公园,121.683425,31.235575,上海市,上海市,浦东新区
C31篮亭生态公园,运动健身,篮球,121.653912,31.232055000000003,上海市,上海市,浦东新区
洛克公园,运动健身,篮球,121.698651,31.202983,上海市,上海市,浦东新区
大星文化生态公园,旅游景点,公园,121.719358,31.221827,上海市,上海市,浦东新区
日新生态公园,旅游景点,公园,121.667577,31.261346,上海市,上海市,浦东新区
锦绣文化生态公园,旅游景点,公园,121.546183,31.190804,上海市,上海市,浦东新区
2049翡翠生态公园,购物消费,百货商场,121.609792,31.17892,上海市,上海市,浦东新区
万科翡翠生态公园,商务住宅,住宅区,121.610329,31.179706000000003,上海市,上海市,浦东新区
华夏公园,旅游景点,公园,121.648901,31.192699,上海市,上海市,浦东新区
卫行休闲生态公园,旅游景点,公园,121.582192,31.16509,上海市,上海市,浦东新区
洛克公园,休闲娱乐,其他,121.578051,31.182671,上海市,上海市,浦东新区
魔都不夜城足球生态公园,运动健身,其他,121.607199,31.230381,上海市,上海市,浦东新区
琦逸足球生态公园,运动健身,足球,121.570305,31.231754,上海市,上海市,浦东新区
POP-UP口袋生态公园,休闲娱乐,其他,121.640192,31.204803,上海市,上海市,浦东新区
唐镇生态公园,旅游景点,公园,121.645091,31.21303,上海市,上海市,浦东新区
唐镇银樽路体育休闲健康生态公园,旅游景点,公园,121.645525,31.21031,上海市,上海市,浦东新区
毕加索生态公园,旅游景点,公园,121.646127,31.21311,上海市,上海市,浦东新区
唐城绿地文化公园,旅游景点,公园,121.646741,31.220798,上海市,上海市,浦东新区
GreenFighters青少年篮球公园,运动健身,篮球,121.61082,31.243778,上海市,上海市,浦东新区
志同道合汽车公园,汽车相关,汽车养护,121.635558,31.264884,上海市,上海市,浦东新区
复兴岛公园,旅游景点,公园,121.562399,31.286414,上海市,上海市,杨浦区
复兴岛公园,交通设施,公交站,121.561614,31.286186,上海市,上海市,杨浦区
新江湾城公园,旅游景点,公园,121.513788,31.33382,上海市,上海市,杨浦区
smpskatepark滑板生态公园,旅游景点,水族馆,121.511353,31.336225,上海市,上海市,杨浦区
新江湾城SMP滑板生态公园,运动健身,其他,121.512885,31.335781,上海市,上海市,杨浦区
森兰体育生态公园,运动健身,其他,121.592079,31.307322,上海市,上海市,浦东新区
乐活生态公园,旅游景点,公园,121.588002,31.304412000000003,上海市,上海市,浦东新区
新高苑南侧休闲生态公园,旅游景点,公园,121.620351,31.28974,上海市,上海市,浦东新区
金光村生态公园,旅游景点,公园,121.636826,31.295743,上海市,上海市,浦东新区
高东生态公园,旅游景点,公园,121.639641,31.306984,上海市,上海市,浦东新区
逸仙公园,旅游景点,公园,121.51053,31.347666,上海市,上海市,宝山区
滨江森林湿地公园,旅游景点,景点,121.528377,31.383217,上海市,上海市,浦东新区
上海吴淞炮台湾国家湿地公园,旅游景点,景点,121.509073,31.396637,上海市,上海市,宝山区
健康科普生态公园,旅游景点,公园,121.701109,31.394737,上海市,上海市,崇明区
健康主题生态公园,旅游景点,公园,121.831002,31.523085,上海市,上海市,崇明区
町文生态公园,休闲娱乐,农家乐,121.830096,31.51591,上海市,上海市,崇明区
富民苑竖新镇市民生态公园,旅游景点,公园,121.598352,31.612264,上海市,上海市,崇明区
春风村民法典主题生态公园,旅游景点,公园,121.607257,31.6222,上海市,上海市,崇明区
东平市民生态公园,旅游景点,公园,121.539452,31.67666,上海市,上海市,崇明区
吴淞滨江生态公园,旅游景点,公园,121.136862,31.277065,上海市,上海市,青浦区
EF park动力方程赛车潮玩生态公园,运动健身,其他,121.163594,31.28056,上海市,上海市,嘉定区
上海汽车博览公园,旅游景点,公园,121.173727,31.278581,上海市,上海市,嘉定区
洛克公园,购物消费,其他,121.163865,31.304987,上海市,上海市,嘉定区
同济大学嘉定校区新奥同济生态公园,科教文化,高等教育,121.208655,31.28644,上海市,上海市,嘉定区
古树生态公园,旅游景点,公园,121.244973,31.31554,上海市,上海市,嘉定区
古银杏公园,交通设施,公交站,121.244761,31.313619,上海市,上海市,嘉定区
民体育公园足球公园,旅游景点,公园,121.239963,31.324562,上海市,上海市,嘉定区
嘉定新城滑板公园,旅游景点,公园,121.245137,31.332337000000003,上海市,上海市,嘉定区
紫气东来生态公园,旅游景点,公园,121.250643,31.344236,上海市,上海市,嘉定区
腊梅主题生态公园,旅游景点,公园,121.178866,31.333962,上海市,上海市,嘉定区
Funny蹦床生态公园,运动健身,其他,121.282795,31.302366,上海市,上海市,嘉定区
菁英湖风情生态公园,旅游景点,公园,121.312578,31.312729,上海市,上海市,嘉定区
留云生态公园,旅游景点,公园,121.308939,31.31406,上海市,上海市,嘉定区
华润·中央生态公园,商务住宅,住宅区,121.31289,31.31483,上海市,上海市,嘉定区
马陆法治主题生态公园,旅游景点,公园,121.322655,31.336992,上海市,上海市,嘉定区
北管村休闲生态公园,旅游景点,公园,121.322557,31.336871,上海市,上海市,嘉定区
石岗门塘休闲生态公园,旅游景点,公园,121.266592,31.344563,上海市,上海市,嘉定区
儿童拓展生态公园,旅游景点,公园,121.266638,31.344501,上海市,上海市,嘉定区
新城拓展生态公园,旅游景点,公园,121.26729,31.345283,上海市,上海市,嘉定区
仓场健身生态公园,旅游景点,公园,121.284079,31.360647,上海市,上海市,嘉定区
生态生态公园,旅游景点,公园,121.303774,31.378766,上海市,上海市,嘉定区
阿王葡萄主题生态公园,旅游景点,水族馆,121.288962,31.397146000000003,上海市,上海市,嘉定区
生态公园,休闲娱乐,农家乐,121.273599,31.414112,上海市,上海市,嘉定区
北郊生态公园-外冈法治文化生态公园,旅游景点,公园,121.175379,31.351966,上海市,上海市,嘉定区
嘉傲篮球公园,运动健身,篮球,121.251783,31.363356,上海市,上海市,嘉定区
北水湾体育生态公园,旅游景点,公园,121.242578,31.402544,上海市,上海市,嘉定区
体育生态公园,旅游景点,公园,121.34282,31.284644,上海市,上海市,普陀区
南大公园,旅游景点,公园,121.371008,31.306205,上海市,上海市,宝山区
甯宝体育生态公园,运动健身,综合体育馆,121.356435,31.301594,上海市,上海市,宝山区
顾村公园,交通设施,地铁,121.373014,31.344584,上海市,上海市,宝山区
南翔污水厂生态公园,旅游景点,公园,121.334352,31.330294,上海市,上海市,嘉定区
南翔水生态公园,旅游景点,公园,121.334678,31.329691,上海市,上海市,嘉定区
新顾城体育生态公园,旅游景点,公园,121.349986,31.343581,上海市,上海市,宝山区
Gree特体育公园,旅游景点,公园,121.468689,31.342524,上海市,上海市,宝山区
庙行生态公园,旅游景点,公园,121.429143,31.325411,上海市,上海市,宝山区
森谷美食生态公园,餐饮美食,中国菜,121.469593,31.364959,上海市,上海市,宝山区
酷野汽车生态公园,休闲娱乐,其他,121.459974,31.35995,上海市,上海市,宝山区
酷野汽车生态公园,科教文化,其他,121.460023,31.359905,上海市,上海市,宝山区
上海胜道酷野国际卡丁车生态公园,运动健身,其他,121.460033,31.359843,上海市,上海市,宝山区
老友聚篮球公园,运动健身,篮球,121.46495,31.397219,上海市,上海市,宝山区
上海长滩瀑布生态公园,旅游景点,公园,121.481604,31.412986,上海市,上海市,宝山区
上海长滩坡地生态公园,旅游景点,公园,121.478071,31.414508,上海市,上海市,宝山区
白沙公园,旅游景点,公园,121.437176,31.39586,上海市,上海市,宝山区
月浦泾品草莓生态公园,休闲娱乐,农家乐,121.396573,31.420241,上海市,上海市,宝山区
中集中央生态公园,商务住宅,住宅区,121.348597,31.397541,上海市,上海市,宝山区
羿翔青少年篮球公园,运动健身,篮球,121.355714,31.413075,上海市,上海市,宝山区
罗新生态公园,旅游景点,公园,121.346022,31.42483,上海市,上海市,宝山区
宝芝田生态公园,休闲娱乐,农家乐,121.363664,31.436976,上海市,上海市,宝山区
爱玛宫婚礼生态公园,生活服务,其他,121.359933,31.438384,上海市,上海市,宝山区
娄塘生态公园,旅游景点,公园,121.214381,31.425008,上海市,上海市,嘉定区
娄塘生态公园,旅游景点,广场,121.214381,31.42499,上海市,上海市,嘉定区
桃溪苑休闲绿地生态公园,旅游景点,公园,121.219937,31.434348,上海市,上海市,嘉定区
毛桥党建生态公园,旅游景点,公园,121.253888,31.474797,上海市,上海市,嘉定区
徐行镇法治主题生态公园,旅游景点,公园,121.303648,31.430409,上海市,上海市,嘉定区
瀛洲公园,旅游景点,公园,121.401666,31.616902,上海市,上海市,崇明区
金鳌山生态公园,旅游景点,公园,121.421941,31.615817,上海市,上海市,崇明区
新城公园,交通设施,公交站,121.426686,31.621568,上海市,上海市,崇明区
崇明新城生态公园,旅游景点,公园,121.423959,31.620917,上海市,上海市,崇明区
庙镇健康文化生态公园,旅游景点,公园,121.349557,31.717456,上海市,上海市,崇明区
飞虹生态公园,旅游景点,公园,121.316765,30.72533,上海市,上海市,金山区
滨海生态公园,旅游景点,公园,121.345996,30.707274,上海市,上海市,金山区
小生态公园,旅游景点,公园,121.335814,30.712397,上海市,上海市,金山区
东礁生态公园,旅游景点,公园,121.341584,30.723084,上海市,上海市,金山区
洛克生态公园,购物消费,其他,121.348027,30.731203,上海市,上海市,金山区
杨家村党建生态公园,旅游景点,水族馆,121.340848,30.736844,上海市,上海市,金山区
汇龙湖生态公园,旅游景点,公园,121.349109,30.749336,上海市,上海市,金山区
新城生态公园,旅游景点,公园,121.341385,30.757931,上海市,上海市,金山区
新城生态公园,旅游景点,景点,121.341397,30.757971,上海市,上海市,金山区
新城旭辉府儿童游乐园公园,运动健身,其他,121.352623,30.754952,上海市,上海市,金山区
共青生态公园,旅游景点,公园,121.472782,30.829787,上海市,上海市,奉贤区
古海塘文化生态公园,旅游景点,公园,121.479391,30.830603,上海市,上海市,奉贤区
红叶生态公园,旅游景点,公园,121.474391,30.900861,上海市,上海市,奉贤区
市民生态公园,旅游景点,公园,121.486602,30.913569000000003,上海市,上海市,奉贤区
正阳中央生态公园,旅游景点,公园,121.477697,30.91207,上海市,上海市,奉贤区
萧塘公园,旅游景点,公园,121.437394,30.96074,上海市,上海市,奉贤区
邬桥健身生态公园,旅游景点,公园,121.396589,30.962384,上海市,上海市,奉贤区
车镜生态公园,旅游景点,公园,121.235703,30.833505,上海市,上海市,金山区
朱吕公路车镜公园,交通设施,公交站,121.235439,30.832342,上海市,上海市,金山区
塔汇健康主题生态公园,旅游景点,公园,121.179963,30.967605,上海市,上海市,松江区
方塔公园,交通设施,公交站,121.247403,31.007064,上海市,上海市,松江区
中央生态公园,旅游景点,公园,121.226474,31.035444,上海市,上海市,松江区
新桥生态公园,旅游景点,公园,121.31325,31.059702,上海市,上海市,松江区
泗泾生态公园,旅游景点,公园,121.274911,31.114102000000003,上海市,上海市,松江区
百分佰体育生态公园,旅游景点,公园,121.230856,31.051783,上海市,上海市,松江区
陈坊生态公园,旅游景点,公园,121.184616,31.098305,上海市,上海市,松江区
西渡生态公园,旅游景点,公园,121.440187,30.988947,上海市,上海市,奉贤区
闵行公园,旅游景点,公园,121.424637,31.00853,上海市,上海市,闵行区
子傲体育生态公园,运动健身,篮球,121.421605,31.018126,上海市,上海市,闵行区
华泾生态公园,旅游景点,公园,121.452584,31.121756,上海市,上海市,徐汇区
集心生态公园,旅游景点,公园,121.413506,31.115017,上海市,上海市,闵行区
颛桥公园,旅游景点,公园,121.391568,31.061716,上海市,上海市,闵行区
鑫都路水文化生态公园,旅游景点,公园,121.398872,31.058206,上海市,上海市,闵行区
莘庄南广场生态公园,旅游景点,公园,121.38788,31.10493,上海市,上海市,闵行区
莘城中央公园,旅游景点,公园,121.386713,31.105113,上海市,上海市,闵行区
梅陇镇党建主题生态公园,旅游景点,公园,121.404034,31.116888,上海市,上海市,闵行区
运康体育生态公园,旅游景点,公园,121.40038,31.115811,上海市,上海市,闵行区
莘庄公园,旅游景点,公园,121.372669,31.102001,上海市,上海市,闵行区
西环路绿地口袋公园,旅游景点,公园,121.361456,31.118882000000003,上海市,上海市,闵行区
万佳鲜生态公园,休闲娱乐,农家乐,121.3749,31.12865,上海市,上海市,闵行区
绿地口袋公园,旅游景点,水族馆,121.387264,31.126637,上海市,上海市,闵行区
外环高速绿地口袋公园,旅游景点,公园,121.382876,31.1265,上海市,上海市,闵行区
平阳双拥生态公园,旅游景点,公园,121.387296,31.134422,上海市,上海市,闵行区
古美科普生态公园,旅游景点,公园,121.405525,31.141435,上海市,上海市,闵行区
古美体育生态公园,旅游景点,公园,121.406499,31.15171,上海市,上海市,闵行区
金虹桥公园,旅游景点,公园,121.381722,31.170995,上海市,上海市,闵行区
洛克公园,运动健身,综合体育馆,121.381291,31.176933,上海市,上海市,闵行区
滑板生态公园,旅游景点,公园,121.399226,31.188954,上海市,上海市,闵行区
古北中央公园,商务住宅,住宅区,121.407541,31.18326,上海市,上海市,闵行区
李秋平篮球公园,运动健身,篮球,121.428714,31.140028,上海市,上海市,徐汇区
华东理工大学鲁华生态公园,旅游景点,公园,121.427105,31.143849,上海市,上海市,徐汇区
徐汇跑道生态公园,旅游景点,景点,121.457696,31.168429,上海市,上海市,徐汇区
世博生态公园,旅游景点,公园,121.484912,31.18709,上海市,上海市,浦东新区
南园生态公园,旅游景点,公园,121.475167,31.191562,上海市,上海市,黄浦区
桂林公园,旅游景点,公园,121.417952,31.165275,上海市,上海市,徐汇区
桂林公园,交通设施,地铁,121.419685,31.166952,上海市,上海市,徐汇区
华山儿童生态公园,旅游景点,公园,121.434633,31.204113,上海市,上海市,长宁区
衡山公园,旅游景点,公园,121.442125,31.20058,上海市,上海市,徐汇区
中山公园,交通设施,公交站,121.418802,31.223744,上海市,上海市,长宁区
爱思儿童公园,休闲娱乐,游乐场,121.486523,31.257423,上海市,上海市,虹口区
鲁迅公园,旅游景点,公园,121.483577,31.271741,上海市,上海市,虹口区
鲁迅公园,交通设施,公交站,121.483405,31.268218,上海市,上海市,虹口区
闸北公园,旅游景点,公园,121.459959,31.270549,上海市,上海市,静安区
管弄生态公园,旅游景点,公园,121.427487,31.257666,上海市,上海市,普陀区
洛克公园,购物消费,其他,121.428699,31.257252,上海市,上海市,普陀区
临空滑板生态公园,旅游景点,公园,121.358286,31.229994,上海市,上海市,长宁区
匠弈体育篮球公园,运动健身,篮球,121.381304,31.210652,上海市,上海市,长宁区
枣阳公园,旅游景点,公园,121.403845,31.23496,上海市,上海市,普陀区
洛克中环篮球公园,运动健身,篮球,121.37711,31.224316,上海市,上海市,普陀区
洛克公园,购物消费,其他,121.377275,31.224883,上海市,上海市,普陀区
海棠生态公园,旅游景点,公园,121.390171,31.247484,上海市,上海市,普陀区
清涧生态公园,旅游景点,公园,121.381991,31.258538,上海市,上海市,普陀区
未来岛公园,旅游景点,公园,121.374911,31.265745,上海市,上海市,普陀区
双桥公园,旅游景点,公园,121.336588,31.250851,上海市,上海市,嘉定区
金沙公园,旅游景点,公园,121.357777,31.242754,上海市,上海市,嘉定区
赵巷公园,旅游景点,公园,121.197961,31.157631,上海市,上海市,青浦区
人然合一现代农业生态公园,餐饮美食,其他,121.215007,31.153549,上海市,上海市,青浦区
人然合一现代农业生态公园,旅游景点,其他,121.215027,31.153572,上海市,上海市,青浦区
九里亭生态公园,旅游景点,公园,121.315482,31.146042,上海市,上海市,松江区
健康主题生态公园,旅游景点,公园,121.278202,31.167943,上海市,上海市,青浦区
诸翟公园,旅游景点,公园,121.286907,31.20887,上海市,上海市,闵行区
洛克公园,购物消费,其他,121.315289,31.203036,上海市,上海市,闵行区
滨江爱特公园,旅游景点,公园,121.31493,31.230251000000003,上海市,上海市,嘉定区
陇南生态公园,旅游景点,公园,121.323276,31.272355,上海市,上海市,嘉定区
凤溪生态公园,旅游景点,公园,121.227075,31.205704,上海市,上海市,青浦区
华新生态公园,旅游景点,公园,121.228742,31.242721,上海市,上海市,青浦区
珀赛达卫浴-MAX体育生态公园,购物消费,家居建材,121.135051,31.160579,上海市,上海市,青浦区
达令港生态公园,旅游景点,公园,121.509263,30.985218,上海市,上海市,奉贤区
周浦公园,旅游景点,公园,121.59712,31.112624,上海市,上海市,浦东新区
篮板熊篮球公园,运动健身,篮球,121.519829,31.083955,上海市,上海市,闵行区
上海呈康体育篮球公园,运动健身,篮球,121.502069,31.073818,上海市,上海市,闵行区
江玮生态公园,旅游景点,公园,121.533308,31.059903,上海市,上海市,闵行区
多乐岛蹦床公园,生活服务,其他,121.560722,31.120459,上海市,上海市,浦东新区
陈行公园,旅游景点,公园,121.506147,31.090572,上海市,上海市,闵行区
浦康休闲生态公园,旅游景点,公园,121.503513,31.100588,上海市,上海市,闵行区
川沙公园,旅游景点,公园,121.700904,31.190941,上海市,上海市,浦东新区
海霞生态公园,旅游景点,公园,121.747641,31.172019,上海市,上海市,浦东新区
江镇市民广场生态公园,旅游景点,公园,121.746947,31.176788,上海市,上海市,浦东新区
唐镇健康主题生态公园,旅游景点,公园,121.677946,31.23944,上海市,上海市,浦东新区
金枫公园,旅游景点,公园,121.679561,31.239826,上海市,上海市,浦东新区
消防街角主题生态公园,旅游景点,公园,121.686958,31.2722,上海市,上海市,浦东新区
阳光生态公园,旅游景点,公园,121.656289,31.270586,上海市,上海市,浦东新区
环林西路春延路口袋生态公园,旅游景点,水族馆,121.524207,31.139882,上海市,上海市,浦东新区
中房洛克生态公园,旅游景点,公园,121.512906,31.143118,上海市,上海市,浦东新区
三林生态公园,旅游景点,公园,121.519363,31.146271,上海市,上海市,浦东新区
三林世博主题生态公园,旅游景点,公园,121.538375,31.161991,上海市,上海市,浦东新区
凡因体育篮球公园,运动健身,篮球,121.537964,31.16864,上海市,上海市,浦东新区
鹏海绿地生态公园,旅游景点,景点,121.568197,31.177168,上海市,上海市,浦东新区
锦尊体育生态公园,旅游景点,公园,121.531356,31.179852,上海市,上海市,浦东新区
三林足球生态公园,运动健身,其他,121.506357,31.166448,上海市,上海市,浦东新区
杨思办生态公园,商务住宅,产业园,121.501624,31.166151,上海市,上海市,浦东新区
大华·斐勒生态公园,商务住宅,住宅区,121.525809,31.178522,上海市,上海市,浦东新区
极境悬浮体育生态公园,旅游景点,公园,121.522999,31.191703,上海市,上海市,浦东新区
南码头社区体育生态公园,旅游景点,公园,121.517412,31.189494,上海市,上海市,浦东新区
新城西岸生态公园,商务住宅,住宅区,121.57639,31.124743,上海市,上海市,浦东新区
张江艺术生态公园,旅游景点,公园,121.584245,31.203125,上海市,上海市,浦东新区
张江碧波生态公园,旅游景点,公园,121.583327,31.206175,上海市,上海市,浦东新区
张江主题生态公园,旅游景点,景点,121.610006,31.204598,上海市,上海市,浦东新区
集创生态公园,商务住宅,其他,121.634322,31.206674,上海市,上海市,浦东新区
碧云体育生态公园,旅游景点,公园,121.583295,31.242848,上海市,上海市,浦东新区
活水生态公园,旅游景点,公园,121.494104,31.202356,上海市,上海市,黄浦区
香梅生态公园,旅游景点,公园,121.538208,31.210964,上海市,上海市,浦东新区
世纪公园,交通设施,地铁,121.550959,31.209407,上海市,上海市,浦东新区
世纪公园,旅游景点,景点,121.552551,31.21571,上海市,上海市,浦东新区
杨树浦电厂遗址生态公园,旅游景点,公园,121.556436,31.266841,上海市,上海市,杨浦区
杨树浦电厂遗迹生态公园,旅游景点,水族馆,121.55597,31.26619,上海市,上海市,杨浦区
波阳公园,旅游景点,公园,121.551609,31.272214,上海市,上海市,杨浦区
梅园生态公园,旅游景点,公园,121.526596,31.236397,上海市,上海市,浦东新区
霍山公园,旅游景点,公园,121.511068,31.253458,上海市,上海市,虹口区
江浦公园,交通设施,地铁,121.523669,31.264618,上海市,上海市,杨浦区
江浦公园,旅游景点,公园,121.524122,31.26597,上海市,上海市,杨浦区
和平公园,旅游景点,公园,121.503209,31.270651,上海市,上海市,虹口区
和平公园,交通设施,公交站,121.502553,31.268817,上海市,上海市,虹口区
大连路和平公园,交通设施,公交站,121.504885,31.271881,上海市,上海市,虹口区
新港路和平公园,交通设施,公交站,121.502599,31.268822,上海市,上海市,虹口区
新时代篮球公园,运动健身,篮球,121.551048,31.283712,上海市,上海市,杨浦区
黄兴公园,交通设施,地铁,121.533403,31.295383,上海市,上海市,杨浦区
共青森林公园,交通设施,地铁,121.546578,31.314555,上海市,上海市,杨浦区
森林公园,交通设施,公交站,121.545363,31.320341,上海市,上海市,杨浦区
浦兴文化生态公园,旅游景点,公园,121.590233,31.27873,上海市,上海市,浦东新区
东沟生态公园,旅游景点,公园,121.577649,31.297151,上海市,上海市,浦东新区
高东镇孝亲敬老主题生态公园,旅游景点,公园,121.615946,31.335055,上海市,上海市,浦东新区
浦南运河法治生态公园,旅游景点,公园,121.471137,30.92237,上海市,上海市,奉贤区
水榭亭健康生态公园,旅游景点,公园,121.321903,30.942836,上海市,上海市,松江区
其昌生态公园,旅游景点,公园,121.232406,31.024683,上海市,上海市,松江区
逐梦青少年篮球公园,运动健身,篮球,121.24605,31.022364,上海市,上海市,松江区
光星路口袋生态公园,旅游景点,公园,121.243779,31.028387,上海市,上海市,松江区
茭菱生态公园,旅游景点,公园,121.248371,31.03917,上海市,上海市,松江区
永丰城市生态公园,旅游景点,公园,121.190956,31.016596,上海市,上海市,松江区
泗泾公园,交通设施,公交站,121.274874,31.115321,上海市,上海市,松江区
林肯生态公园,购物消费,百货商场,121.253818,31.05606,上海市,上海市,松江区
银杏生态公园,旅游景点,公园,121.411191,31.010744,上海市,上海市,闵行区
西渡江边生态公园,旅游景点,公园,121.429135,30.995514,上海市,上海市,奉贤区
水帘洞广场生态公园,旅游景点,公园,121.430812,30.99382,上海市,上海市,奉贤区
西渡小生态公园,旅游景点,公园,121.429769,30.995551000000003,上海市,上海市,奉贤区
闵行滨江生态公园,旅游景点,公园,121.425533,30.998412,上海市,上海市,闵行区
万科青藤公园,商务住宅,其他,121.470254,31.034506,上海市,上海市,闵行区
川源生态公园,旅游景点,公园,121.431612,31.017093000000003,上海市,上海市,闵行区
无限篮球公园,运动健身,篮球,121.417797,31.029703,上海市,上海市,闵行区
颛桥剪纸文化生态公园,旅游景点,公园,121.415565,31.081376,上海市,上海市,闵行区
WHEELSPARK车轮生态公园,汽车相关,汽车配件,121.41615,31.108885,上海市,上海市,闵行区
七莘路绿地口袋公园,旅游景点,公园,121.370905,31.123591,上海市,上海市,闵行区
gt篮球公园,运动健身,篮球,121.33879,31.133175,上海市,上海市,松江区
凹凸滑板生态公园,旅游景点,公园,121.337755,31.152194,上海市,上海市,闵行区
凹凸滑板生态公园,运动健身,其他,121.337793,31.15213,上海市,上海市,闵行区
水清路绿地口袋公园,旅游景点,公园,121.376618,31.123895,上海市,上海市,闵行区
篮球公园,运动健身,篮球,121.379264,31.124773,上海市,上海市,闵行区
黎安公园,旅游景点,公园,121.380114,31.129783,上海市,上海市,闵行区
嘉和生态公园,旅游景点,公园,121.402965,31.125904,上海市,上海市,闵行区
梅陇廉洁文化生态公园,旅游景点,公园,121.409258,31.130704,上海市,上海市,闵行区
古美生态公园,旅游景点,公园,121.392962,31.141843,上海市,上海市,闵行区
古美人口文化生态公园,旅游景点,公园,121.395004,31.151819,上海市,上海市,闵行区
洛克公园,运动健身,篮球,121.395789,31.160551,上海市,上海市,徐汇区
洛克生态公园,运动健身,篮球,121.395696,31.160448,上海市,上海市,徐汇区
漕河泾开发区生态公园,旅游景点,公园,121.400334,31.169311,上海市,上海市,徐汇区
HANSPACE篮球公园,运动健身,篮球,121.406818,31.173526,上海市,上海市,徐汇区
漕河泾生态公园,旅游景点,公园,121.399261,31.171751,上海市,上海市,徐汇区
体汇+名都体育生态公园,旅游景点,公园,121.398914,31.189353,上海市,上海市,闵行区
航华公园,旅游景点,公园,121.347634,31.174253,上海市,上海市,闵行区
闵行文化生态公园,旅游景点,公园,121.360548,31.164713000000003,上海市,上海市,闵行区
五星体育生态公园,旅游景点,公园,121.355758,31.166747,上海市,上海市,闵行区
体汇+闵行文化生态公园,运动健身,足球,121.356614,31.167614,上海市,上海市,闵行区
足球生态公园,旅游景点,其他,121.356548,31.16764,上海市,上海市,闵行区
梅陇好人公园,旅游景点,公园,121.415942,31.13166,上海市,上海市,闵行区
百花街口袋生态公园,旅游景点,公园,121.415153,31.146792,上海市,上海市,徐汇区
康乐汇口袋生态公园,旅游景点,动物园,121.413037,31.151792,上海市,上海市,徐汇区
康健社区体育生态公园,旅游景点,公园,121.417804,31.152611,上海市,上海市,徐汇区
前耀路友城公园,交通设施,公交站,121.472482,31.15595,上海市,上海市,浦东新区
前滩友城生态公园,旅游景点,公园,121.472183,31.15753,上海市,上海市,浦东新区
百帕宠物生态公园,购物消费,其他,121.460019,31.163719,上海市,上海市,徐汇区
长青生态公园,旅游景点,公园,121.488663,31.174029,上海市,上海市,浦东新区
东安公园,旅游景点,公园,121.454345,31.18524,上海市,上海市,徐汇区
青于篮篮球公园,运动健身,篮球,121.456363,31.18603,上海市,上海市,徐汇区
老鹰生态公园,旅游景点,公园,121.430418,31.173708,上海市,上海市,徐汇区
生态公园,休闲娱乐,农家乐,121.428227,31.176196,上海市,上海市,徐汇区
坚果篮球公园,运动健身,篮球,121.445679,31.178764,上海市,上海市,徐汇区
光启生态公园,旅游景点,公园,121.434601,31.189599,上海市,上海市,徐汇区
HANSPACE篮球公园,运动健身,篮球,121.435601,31.189146,上海市,上海市,徐汇区
天山公园,旅游景点,公园,121.41584,31.210123,上海市,上海市,长宁区
九子生态公园,旅游景点,公园,121.464084,31.240517,上海市,上海市,黄浦区
交通生态公园,旅游景点,公园,121.467445,31.247499,上海市,上海市,静安区
中兴生态公园,旅游景点,公园,121.469938,31.254734000000003,上海市,上海市,静安区
普陀生态公园,旅游景点,公园,121.427636,31.244723,上海市,上海市,普陀区
苏州河梦清园环保主题公园,旅游景点,公园,121.440444,31.25065,上海市,上海市,普陀区
沪太公园,旅游景点,公园,121.439378,31.26811,上海市,上海市,普陀区
中新泾生态公园,旅游景点,景点,121.36597,31.202702,上海市,上海市,长宁区
许浦生态公园,旅游景点,公园,121.338991,31.228503,上海市,上海市,闵行区
虹桥河滨生态公园,旅游景点,公园,121.400656,31.219548,上海市,上海市,长宁区
长风公园,旅游景点,公园,121.400833,31.224593,上海市,上海市,普陀区
洛克公园,运动健身,篮球,121.377075,31.219899,上海市,上海市,长宁区
真光公园,旅游景点,公园,121.385028,31.25407,上海市,上海市,普陀区
真如公园,旅游景点,公园,121.399315,31.253049,上海市,上海市,普陀区
百瑞宠物生态公园,购物消费,其他,121.410693,31.26743,上海市,上海市,普陀区
海波生态公园,旅游景点,公园,121.341922,31.265881,上海市,上海市,嘉定区
嘉洲生态公园,旅游景点,公园,121.341704,31.270406,上海市,上海市,嘉定区
赵巷体育生态公园,旅游景点,公园,121.227612,31.124451,上海市,上海市,青浦区
龙腾乐翔篮球公园,运动健身,篮球,121.191773,31.194156,上海市,上海市,青浦区
九亭口袋生态公园,旅游景点,水族馆,121.321836,31.125491,上海市,上海市,松江区
梦谷体育生态公园,旅游景点,公园,121.266469,31.198214,上海市,上海市,青浦区
华漕公园,旅游景点,公园,121.333119,31.219769,上海市,上海市,闵行区
魔幻体育生态公园,旅游景点,水族馆,121.331135,31.228406000000003,上海市,上海市,闵行区
道格体育生态公园,运动健身,足球,121.331021,31.228506,上海市,上海市,闵行区
金鹤公园,旅游景点,公园,121.313563,31.241832,上海市,上海市,嘉定区
纪王公园,旅游景点,公园,121.268868,31.238149,上海市,上海市,闵行区
重固镇农民生态公园,旅游景点,公园,121.183961,31.202022,上海市,上海市,青浦区
梅香生态公园,旅游景点,公园,121.09412,31.159709,上海市,上海市,青浦区
景瑞城中生态公园,商务住宅,住宅区,121.113982,31.157115,上海市,上海市,青浦区
口袋生态公园,旅游景点,公园,121.105299,31.152979,上海市,上海市,青浦区
长岛生态公园,旅游景点,公园,121.1027,31.164381,上海市,上海市,青浦区
安亭新镇奥林Peak体育公园,旅游景点,公园,121.165639,31.271944,上海市,上海市,嘉定区
洪庙小生态公园,旅游景点,公园,121.687189,30.928187,上海市,上海市,奉贤区
清溪法治生态公园,旅游景点,公园,121.579913,30.927109,上海市,上海市,奉贤区
青村书法生态公园,旅游景点,公园,121.575235,30.924246,上海市,上海市,奉贤区
南汇新城城市生态公园,旅游景点,公园,121.92151,30.890332,上海市,上海市,浦东新区
二环城市生态公园,生活服务,其他,121.923384,30.888306,上海市,上海市,浦东新区
二环城市生态公园,旅游景点,其他,121.919293,30.890397,上海市,上海市,浦东新区
二环城市生态公园,旅游景点,其他,121.919799,30.888910000000003,上海市,上海市,浦东新区
二环城市生态公园,购物消费,其他,121.920009,30.887623,上海市,上海市,浦东新区
南汇新城镇健康主题生态公园,旅游景点,公园,121.911155,30.893989,上海市,上海市,浦东新区
临港滨河文化公园,旅游景点,公园,121.813009,30.903679,上海市,上海市,浦东新区
舒馨生态公园,旅游景点,公园,121.869084,30.977424,上海市,上海市,浦东新区
开新文体生态公园,旅游景点,公园,121.646066,31.017605,上海市,上海市,浦东新区
民法典主题生态公园,旅游景点,公园,121.496348,31.078898,上海市,上海市,闵行区
川沙绿地生态公园,旅游景点,公园,121.682995,31.187569,上海市,上海市,浦东新区
合庆生态公园,旅游景点,公园,121.723341,31.235755,上海市,上海市,浦东新区
一心村健身生态公园,旅游景点,公园,121.682437,31.243225,上海市,上海市,浦东新区
龚华街心生态公园,旅游景点,公园,121.684856,31.263011,上海市,上海市,浦东新区
北蔡消防主题生态公园,旅游景点,公园,121.550864,31.167784,上海市,上海市,浦东新区
由由生态公园,旅游景点,公园,121.532762,31.189736,上海市,上海市,浦东新区
百帕宠物生态公园,购物消费,其他,121.493506,31.179501,上海市,上海市,浦东新区
中体世博体育生态公园,运动健身,其他,121.498379,31.185306,上海市,上海市,浦东新区
王侯将相篮球公园,运动健身,篮球,121.576964,31.149661,上海市,上海市,浦东新区
广兰生态公园,旅游景点,公园,121.619748,31.208651,上海市,上海市,浦东新区
金桥5G产业生态公园,商务住宅,产业园,121.626108,31.256993,上海市,上海市,浦东新区
金桥公园,旅游景点,公园,121.593118,31.257015,上海市,上海市,浦东新区
维也纳金山生态公园,旅游景点,公园,121.592007,31.255371,上海市,上海市,浦东新区
金杨科普生态公园,旅游景点,公园,121.574211,31.255432,上海市,上海市,浦东新区
李秋平篮球公园,运动健身,篮球,121.578918,31.260802,上海市,上海市,浦东新区
蓬莱公园,交通设施,公交站,121.49289,31.206344,上海市,上海市,黄浦区
蓬莱生态公园,旅游景点,公园,121.491482,31.206082,上海市,上海市,黄浦区
英米篮球公园,运动健身,篮球,121.515112,31.220039,上海市,上海市,浦东新区
飞梦足球生态公园,运动健身,其他,121.514537,31.220876,上海市,上海市,浦东新区
乐琦足球公园,运动健身,其他,121.558182,31.202955,上海市,上海市,浦东新区
李秋平篮球公园,运动健身,篮球,121.558423,31.232518,上海市,上海市,浦东新区
浦东体育生态公园,旅游景点,公园,121.536369,31.231355,上海市,上海市,浦东新区
泾南生态公园,旅游景点,公园,121.553487,31.235625,上海市,上海市,浦东新区
平凉公园,旅游景点,公园,121.542546,31.266702,上海市,上海市,杨浦区
黄兴公园,旅游景点,公园,121.529974,31.293254,上海市,上海市,杨浦区
黄兴公园,交通设施,公交站,121.528969,31.295875,上海市,上海市,杨浦区
黄兴全民体育生态公园,旅游景点,公园,121.527895,31.296914,上海市,上海市,杨浦区
仲益黄兴体育生态公园,运动健身,网球,121.527889,31.296893,上海市,上海市,杨浦区
黄兴体育运动生态公园,运动健身,其他,121.524805,31.29726,上海市,上海市,杨浦区
杨浦公园,旅游景点,公园,121.536215,31.280349,上海市,上海市,杨浦区
崇明生态公园,休闲娱乐,农家乐,121.533587,31.328586,上海市,上海市,杨浦区
万佳鲜生态公园,休闲娱乐,农家乐,121.49129,31.346387,上海市,上海市,宝山区
金桥市民体育休闲生态公园,旅游景点,公园,121.604954,31.278582,上海市,上海市,浦东新区
开兴体育生态公园,旅游景点,公园,121.603167,31.286454,上海市,上海市,浦东新区
高行绿地生态公园,旅游景点,公园,121.614975,31.287141,上海市,上海市,浦东新区
洛克生态公园,运动健身,篮球,121.610616,31.291418,上海市,上海市,浦东新区
吴淞生态公园,旅游景点,公园,121.500226,31.376961,上海市,上海市,宝山区
泰力宝体育生态公园,旅游景点,公园,121.500328,31.380564,上海市,上海市,宝山区
宝山滨江生态公园,旅游景点,公园,121.496506,31.410776,上海市,上海市,宝山区
上海淞沪抗战纪念生态公园,旅游景点,红色旅游,121.492778,31.408685,上海市,上海市,宝山区
安亭·中央生态公园,商务住宅,住宅区,121.155377,31.292359,上海市,上海市,嘉定区
嘉傲篮球公园,运动健身,篮球,121.239073,31.343872,上海市,上海市,嘉定区
百亩生态公园,旅游景点,公园,121.321119,31.299941,上海市,上海市,嘉定区
紫藤生态公园,旅游景点,植物园,121.258554,31.379404,上海市,上海市,嘉定区
南水关生态公园,旅游景点,公园,121.255685,31.376493,上海市,上海市,嘉定区
新成生态公园,旅游景点,公园,121.268778,31.387564,上海市,上海市,嘉定区
嘉宁生态公园,旅游景点,公园,121.254827,31.398854,上海市,上海市,嘉定区
南苑生态公园,旅游景点,公园,121.251841,31.370585,上海市,上海市,嘉定区
奥兴足球生态公园,运动健身,足球,121.411944,31.297235,上海市,上海市,宝山区
祁连公园,旅游景点,公园,121.378212,31.327417,上海市,上海市,宝山区
上海李秋平篮球公园,运动健身,篮球,121.445304,31.287301,上海市,上海市,静安区
彭浦公园,旅游景点,公园,121.447438,31.304637,上海市,上海市,静安区
东茭泾生态公园,旅游景点,公园,121.436069,31.309404,上海市,上海市,静安区
广粤运动公园,旅游景点,其他,121.464122,31.281222000000003,上海市,上海市,虹口区
阳泉生态公园,旅游景点,公园,121.464748,31.326728,上海市,上海市,宝山区
智力生态公园,旅游景点,公园,121.43375,31.340373,上海市,上海市,宝山区
柒点生态公园,休闲娱乐,农家乐,121.433548,31.338763,上海市,上海市,宝山区
大黄生态公园,休闲娱乐,农家乐,121.421091,31.357119,上海市,上海市,宝山区
盘古生态公园,旅游景点,公园,121.452326,31.398255,上海市,上海市,宝山区
罗泾生态公园,旅游景点,公园,121.327701,31.482142,上海市,上海市,宝山区
罗泾生态公园,旅游景点,其他,121.328888,31.480514,上海市,上海市,宝山区
罗泾公园,生活服务,公厕,121.329208,31.481491,上海市,上海市,宝山区
罗泾镇健康主题生态公园,旅游景点,公园,121.328336,31.482276,上海市,上海市,宝山区
华阳绿地生态公园,旅游景点,公园,121.265679,31.002922,上海市,上海市,松江区
生态公园,休闲娱乐,其他,121.393026,31.06467,上海市,上海市,闵行区
虹桥镇法治生态公园,旅游景点,公园,121.386624,31.175367,上海市,上海市,闵行区
虹溪公园,旅游景点,公园,121.386153,31.17516,上海市,上海市,闵行区
李秋平篮球公园,运动健身,篮球,121.382676,31.179435,上海市,上海市,闵行区
BAB球与球运动生态公园,运动健身,其他,121.399389,31.197329,上海市,上海市,长宁区
梦生态公园,旅游景点,公园,121.418013,31.18262,上海市,上海市,徐汇区
西康公园,旅游景点,公园,121.449862,31.230118,上海市,上海市,静安区
李秋平篮球公园,运动健身,篮球,121.419497,31.219616,上海市,上海市,长宁区
民防苑街角生态公园,旅游景点,公园,121.464908,31.214654,上海市,上海市,黄浦区
襄阳公园,交通设施,公交站,121.455039,31.215028,上海市,上海市,徐汇区
昆山公园,旅游景点,公园,121.48665,31.249013,上海市,上海市,虹口区
四川北路公园,旅游景点,公园,121.48482,31.254921000000003,上海市,上海市,虹口区
IPark爱车公园,汽车相关,其他,121.486072,31.255646,上海市,上海市,虹口区
长寿健康主题公园,旅游景点,公园,121.439462,31.243444,上海市,上海市,普陀区
建民绿地公园,旅游景点,公园,121.437924,31.255838,上海市,上海市,普陀区
踢球者生态公园,运动健身,足球,121.370848,31.208519,上海市,上海市,长宁区
仙霞生态公园,旅游景点,公园,121.390867,31.204409,上海市,上海市,长宁区
水霞生态公园,旅游景点,公园,121.390311,31.206878,上海市,上海市,长宁区
长风公园,交通设施,地铁,121.396306,31.225243,上海市,上海市,普陀区
百禧生态公园,旅游景点,公园,121.411801,31.238047,上海市,上海市,普陀区
曹杨公园,旅游景点,公园,121.408885,31.240046,上海市,上海市,普陀区
兰溪青年公园,旅游景点,公园,121.404832,31.240842,上海市,上海市,普陀区
建德花园小生态公园,旅游景点,公园,121.358161,31.236491,上海市,上海市,普陀区
法治主题公园,旅游景点,公园,121.312267,31.209848,上海市,上海市,闵行区
音乐生态公园,旅游景点,公园,121.112971,31.147326,上海市,上海市,青浦区
川沙古城墙生态公园,旅游景点,公园,121.70689,31.194697,上海市,上海市,浦东新区
北城绿地生态公园,旅游景点,公园,121.701361,31.19814,上海市,上海市,浦东新区
上海世博马术生态公园,科教文化,会展展览,121.494703,31.180365,上海市,上海市,浦东新区
上海外滩幻影生态公园,科教文化,会展展览,121.498535,31.227507000000003,上海市,上海市,黄浦区
一起玩篮球公园,运动健身,篮球,121.536842,31.22946,上海市,上海市,浦东新区
Edy滑板生态公园,旅游景点,水族馆,121.492491,31.286298,上海市,上海市,虹口区
五月花公园,旅游景点,公园,121.257983,31.406027,上海市,上海市,嘉定区
诚盛篮球公园,运动健身,篮球,121.368088,31.345128,上海市,上海市,宝山区
洛克生态公园,运动健身,其他,121.425482,31.287691,上海市,上海市,静安区
慧动体育生态公园,运动健身,综合体育馆,121.444292,31.279873,上海市,上海市,静安区
李秋平篮球公园,运动健身,篮球,121.444302,31.285168,上海市,上海市,静安区
三泉公园,旅游景点,公园,121.447018,31.315474,上海市,上海市,静安区
万佳鲜生态公园,休闲娱乐,农家乐,121.477241,31.406332,上海市,上海市,宝山区
美乐尔主题生态公园,旅游景点,公园,121.431045,30.989214,上海市,上海市,奉贤区
洛克公园,运动健身,综合体育馆,121.340566,31.164507,上海市,上海市,闵行区
食艺生态公园,旅游景点,公园,121.371207,31.173157,上海市,上海市,闵行区
超盛商场室内篮球公园,运动健身,篮球,121.395183,31.222461,上海市,上海市,普陀区
SkyPark高登生态公园,运动健身,其他,121.395331,31.223267,上海市,上海市,普陀区
popark艺术生态公园,旅游景点,水族馆,121.527057,31.227809,上海市,上海市,浦东新区
洛克公园,运动健身,综合体育馆,121.377854,31.108003,上海市,上海市,闵行区
中联村·党群主题公园,旅游景点,公园,121.139715,30.814822,上海市,上海市,金山区
江畔生态公园,旅游景点,公园,121.456964,31.43346,上海市,上海市,宝山区
勇敢生态公园,旅游景点,公园,121.195732,30.796784,上海市,上海市,金山区
上海萤火虫主题生态公园,旅游景点,公园,121.255326,31.069934,上海市,上海市,松江区
战歌篮球公园,运动健身,篮球,121.353801,31.019099,上海市,上海市,闵行区
梅陇生态生态公园,旅游景点,公园,121.403483,31.115916,上海市,上海市,闵行区
洛克公园,运动健身,篮球,121.517994,31.307124,上海市,上海市,杨浦区
杨园公园,交通设施,公交站,121.634493,31.315375000000003,上海市,上海市,浦东新区
四季有美景口袋生态公园,旅游景点,公园,121.48591,31.275249,上海市,上海市,虹口区
MAMBA Staples Center篮球公园,运动健身,其他,121.458787,31.327165,上海市,上海市,宝山区
沪松公路鼓浪路街心生态公园,旅游景点,公园,121.284247,31.117025,上海市,上海市,松江区
新华路口袋生态公园,旅游景点,公园,121.425799,31.203235,上海市,上海市,长宁区
种德路桥生态公园,旅游景点,公园,121.420427,31.209662,上海市,上海市,长宁区
李秋平篮球公园,运动健身,篮球,121.419849,31.256291,上海市,上海市,普陀区
天原生态公园-长宁老年生态公园,旅游景点,公园,121.391449,31.213029,上海市,上海市,长宁区
mcdonalds中山公园,餐饮美食,小吃快餐,121.417898,31.218185,上海市,上海市,长宁区
呈康青少年篮球公园,运动健身,篮球,121.538812,31.230156,上海市,上海市,浦东新区
哈士鳍路亚生态公园,旅游景点,公园,121.442934,30.882065,上海市,上海市,奉贤区
圣泉葡萄生态公园,休闲娱乐,农家乐,121.237756,30.853874,上海市,上海市,金山区
金水湖健康主题生态公园,旅游景点,公园,121.309949,30.831375,上海市,上海市,金山区
户外写生合庆郊野生态公园,旅游景点,公园,121.717671,31.260464,上海市,上海市,浦东新区
渔港生态公园,旅游景点,公园,121.787973,31.351142,上海市,上海市,崇明区
嘉北郊野公园彭门湿地公园,旅游景点,景点,121.212104,31.360492,上海市,上海市,嘉定区
中山街道五龙湖廉政主题公园,旅游景点,公园,121.25474,31.053571,上海市,上海市,松江区
九亭镇九亭生态公园,旅游景点,其他,121.32723,31.108817,上海市,上海市,松江区
杉林湿地公园,旅游景点,公园,121.323824,31.106433,上海市,上海市,松江区
畲北水杉森林湿地公园,旅游景点,景点,121.215441,31.114711,上海市,上海市,松江区
上海佘山国家森林湿地公园,旅游景点,景点,121.19653,31.094394,上海市,上海市,松江区
易盒生态公园,旅游景点,公园,121.29875,31.244313,上海市,上海市,嘉定区
贤浦生态公园,旅游景点,公园,121.509114,30.957356,上海市,上海市,奉贤区
南行港生态公园,旅游景点,公园,121.501896,30.967457,上海市,上海市,奉贤区
沿北生态公园,旅游景点,公园,121.588722,31.142959,上海市,上海市,浦东新区
浦发生态公园,旅游景点,公园,121.540836,31.148634,上海市,上海市,浦东新区
培花生态公园,旅游景点,公园,121.554537,31.193449,上海市,上海市,浦东新区
上南生态公园,旅游景点,公园,121.498576,31.167123,上海市,上海市,浦东新区
临沂生态公园,旅游景点,公园,121.506816,31.188109,上海市,上海市,浦东新区
新时代篮球公园,运动健身,篮球,121.505679,31.187579,上海市,上海市,浦东新区
张衡生态公园,旅游景点,公园,121.629704,31.193663,上海市,上海市,浦东新区
张江镇孝亲敬老主题生态公园,旅游景点,公园,121.629467,31.194267,上海市,上海市,浦东新区
浦东哈雷898足球生态公园,旅游景点,水族馆,121.602839,31.196633,上海市,上海市,浦东新区
亮景生态公园,旅游景点,公园,121.608098,31.20381,上海市,上海市,浦东新区
悦动生态公园,旅游景点,公园,121.607364,31.237364,上海市,上海市,浦东新区
神农氏生态办生态公园,商务住宅,产业园,121.60351,31.240581,上海市,上海市,浦东新区
南浦广场生态公园,旅游景点,公园,121.515414,31.20303,上海市,上海市,浦东新区
青于篮青少年篮球公园,运动健身,篮球,121.559035,31.205236,上海市,上海市,浦东新区
花木生态公园,旅游景点,公园,121.553945,31.203873,上海市,上海市,浦东新区
CJ篮球公园,运动健身,篮球,121.553144,31.205844,上海市,上海市,浦东新区
洛克公园,运动健身,其他,121.554115,31.231066,上海市,上海市,浦东新区
G地生态公园,旅游景点,水族馆,121.534831,31.232292,上海市,上海市,浦东新区
泾东生态公园,旅游景点,公园,121.556208,31.247151,上海市,上海市,浦东新区
帆港生态公园,旅游景点,公园,121.553663,31.253375,上海市,上海市,浦东新区
东方明珠生态公园,旅游景点,公园,121.50015,31.241128,上海市,上海市,浦东新区
链轮体育生态公园,旅游景点,公园,121.513964,31.241359,上海市,上海市,浦东新区
惠民公园,旅游景点,公园,121.522536,31.258327,上海市,上海市,杨浦区
洛克生态公园,运动健身,篮球,121.548904,31.277712,上海市,上海市,杨浦区
崇明生态公园,公司企业,其他,121.52452,31.322638,上海市,上海市,杨浦区
绿波苑健康主题生态公园,旅游景点,公园,121.582021,31.286176,上海市,上海市,浦东新区
绿波苑体育生态公园,旅游景点,公园,121.582997,31.286147,上海市,上海市,浦东新区
飞梦体育生态公园,运动健身,其他,121.599627,31.289839,上海市,上海市,浦东新区
高东生态公园,旅游景点,公园,121.625105,31.32743,上海市,上海市,浦东新区
港城生态公园,旅游景点,公园,121.580439,31.356378,上海市,上海市,浦东新区
蹦床生态公园,旅游景点,水族馆,121.497712,31.349446,上海市,上海市,宝山区
万佳鲜生态公园,餐饮美食,中国菜,121.497225,31.389127,上海市,上海市,宝山区
塘后路炮台湾湿地公园,交通设施,公交站,121.506257,31.392934,上海市,上海市,宝山区
北郊生态公园,旅游景点,公园,121.175039,31.352313,上海市,上海市,嘉定区
南翔镇银翔湖生态公园,旅游景点,公园,121.327147,31.282214,上海市,上海市,嘉定区
槎浦生态公园,旅游景点,公园,121.330564,31.288011,上海市,上海市,普陀区
华润中央生态公园,商务住宅,其他,121.316303,31.313378,上海市,上海市,嘉定区
马陆公园,旅游景点,公园,121.278595,31.326382,上海市,上海市,嘉定区
高昌路居民健身生态公园,旅游景点,公园,121.241894,31.373547,上海市,上海市,嘉定区
儿童生态公园,旅游景点,公园,121.241311,31.383112,上海市,上海市,嘉定区
德必AI社区运动生态公园,休闲娱乐,游乐场,121.238604,31.382566,上海市,上海市,嘉定区
环城河市民休闲生态公园-紫云廊生态公园,旅游景点,公园,121.249473,31.393838,上海市,上海市,嘉定区
陈家山公园,旅游景点,公园,121.245047,31.398929000000003,上海市,上海市,嘉定区
大华行知公园,旅游景点,公园,121.410179,31.277796,上海市,上海市,宝山区
大华行知公园,交通设施,公交站,121.411308,31.278779,上海市,上海市,宝山区
大宁郁金香公园,旅游景点,公园,121.443076,31.275775,上海市,上海市,静安区
Skatelab滑板生态公园,运动健身,其他,121.446824,31.287798,上海市,上海市,静安区
大宁四方生态公园,旅游景点,公园,121.455465,31.28725,上海市,上海市,静安区
凉城公园,旅游景点,公园,121.471891,31.29798,上海市,上海市,虹口区
洛克生态公园,运动健身,篮球,121.466218,31.319362,上海市,上海市,静安区
蹦床主题生态公园,旅游景点,水族馆,121.466214,31.320335,上海市,上海市,宝山区
Double Jump亲子蹦床生态公园,休闲娱乐,游乐场,121.466174,31.320262,上海市,上海市,宝山区
后工业生态景观生态公园,旅游景点,公园,121.476392,31.345861,上海市,上海市,宝山区
上海钢雕生态公园,旅游景点,公园,121.480058,31.34623,上海市,上海市,宝山区
大黄足球生态公园,运动健身,足球,121.432353,31.357789,上海市,上海市,宝山区
大黄村生态公园,休闲娱乐,农家乐,121.433197,31.359191000000003,上海市,上海市,宝山区
青于篮篮球公园,运动健身,篮球,121.433946,31.365391,上海市,上海市,宝山区
我玩网球篮球公园,运动健身,篮球,121.43341,31.373703000000003,上海市,上海市,宝山区
友谊生态公园,旅游景点,公园,121.47968,31.400139,上海市,上海市,宝山区
菊盛公园,旅游景点,公园,121.370452,31.353250000000003,上海市,上海市,宝山区
五龙湖生态公园,旅游景点,公园,121.24891,31.054499,上海市,上海市,松江区
法制宣传主题生态公园,旅游景点,公园,121.371413,31.108472,上海市,上海市,闵行区
徐家汇体育公园,运动健身,其他,121.439621,31.18149,上海市,上海市,徐汇区
Adidas足球公园,运动健身,足球,121.440791,31.183275,上海市,上海市,徐汇区
徐家汇公园,旅游景点,公园,121.442536,31.197352,上海市,上海市,徐汇区
坚果篮球公园,运动健身,篮球,121.423463,31.193512,上海市,上海市,徐汇区
健身生态公园,运动健身,其他,121.423728,31.210987,上海市,上海市,长宁区
哥伦比亚生态公园,商务住宅,其他,121.426987,31.209813,上海市,上海市,长宁区
北京西路与常德路口生态公园,旅游景点,公园,121.446804,31.22755,上海市,上海市,静安区
中山公园,旅游景点,公园,121.419079,31.221601,上海市,上海市,长宁区
复兴生态公园,旅游景点,公园,121.469097,31.216964,上海市,上海市,黄浦区
丽园生态公园,旅游景点,公园,121.478809,31.207352,上海市,上海市,黄浦区
延中广场生态公园,旅游景点,公园,121.47505,31.225593,上海市,上海市,黄浦区
广场生态公园,旅游景点,公园,121.471756,31.224505,上海市,上海市,黄浦区
广场生态公园,旅游景点,公园,121.477831,31.227003,上海市,上海市,黄浦区
襄阳公园,旅游景点,公园,121.456727,31.216955,上海市,上海市,徐汇区
静安雕塑公园,旅游景点,公园,121.463903,31.234805,上海市,上海市,静安区
广莲申·点心生态公园,餐饮美食,蛋糕甜品店,121.459,31.228312000000003,上海市,上海市,静安区
双拥生态公园,旅游景点,公园,121.469149,31.239947,上海市,上海市,静安区
华润苏河湾中央公园,旅游景点,公园,121.478461,31.2414,上海市,上海市,静安区
洛克公园,运动健身,其他,121.479607,31.271695,上海市,上海市,虹口区
闸北公园,交通设施,公交站,121.458406,31.266649,上海市,上海市,静安区
甘泉公园,旅游景点,公园,121.428182,31.267241,上海市,上海市,普陀区
百帕宠物公园,购物消费,其他,121.359499,31.21777,上海市,上海市,长宁区
新泾公园,旅游景点,公园,121.362106,31.21711,上海市,上海市,长宁区
天原生态公园,旅游景点,公园,121.390869,31.212926,上海市,上海市,长宁区
祥和公园,旅游景点,公园,121.379711,31.242202,上海市,上海市,普陀区
秋雨路口袋公园,旅游景点,公园,121.81557,30.909292,上海市,上海市,浦东新区
紫薇生态公园,旅游景点,公园,121.614964,31.200353,上海市,上海市,浦东新区
塘桥生态公园,旅游景点,公园,121.528214,31.217019,上海市,上海市,浦东新区
活力102体育休闲生态公园,旅游景点,公园,121.520766,31.234894,上海市,上海市,浦东新区
上海一圈青年主题公园,旅游景点,公园,121.505968,31.237878,上海市,上海市,浦东新区
柳园生态公园,旅游景点,公园,121.508341,31.235924,上海市,上海市,浦东新区
机器人生态公园,旅游景点,水族馆,121.517782,31.276935,上海市,上海市,杨浦区
松鹤公园,旅游景点,公园,121.514213,31.280247,上海市,上海市,杨浦区
唐家塔口袋生态公园,旅游景点,公园,121.530503,31.278544,上海市,上海市,杨浦区
延春公园,旅游景点,公园,121.535814,31.288259,上海市,上海市,杨浦区
南汇果蔬生态公园,休闲娱乐,农家乐,121.533203,31.318359,上海市,上海市,杨浦区
工农公园,旅游景点,公园,121.537753,31.325708,上海市,上海市,杨浦区
高桥生态公园,旅游景点,公园,121.572802,31.345533,上海市,上海市,浦东新区
洛克公园,购物消费,其他,121.276613,31.320263,上海市,上海市,嘉定区
袋鼠王蹦床生态公园,休闲娱乐,游乐场,121.254698,31.330575000000003,上海市,上海市,嘉定区
精武生态公园,旅游景点,公园,121.486338,31.287192,上海市,上海市,虹口区
中山公园,交通设施,地铁,121.41576,31.217995,上海市,上海市,长宁区
中山公园,旅游景点,其他,121.416007,31.217773,上海市,上海市,长宁区
洛克公园,运动健身,其他,121.382376,31.244713,上海市,上海市,普陀区
青于篮篮球公园,科教文化,培训单位,121.382398,31.244681,上海市,上海市,普陀区
洛克公园,运动健身,其他,121.621783,31.25477,上海市,上海市,浦东新区
子傲篮球公园,运动健身,篮球,121.415553,31.026969,上海市,上海市,闵行区
THE PARK卡丁生态公园,旅游景点,水族馆,121.372503,31.174018,上海市,上海市,闵行区
龙之梦购物公园,生活服务,公厕,121.416777,31.219387,上海市,上海市,长宁区
爱琴海购物生态公园,购物消费,百货商场,121.373329,31.174817,上海市,上海市,闵行区
崇明生态公园,休闲娱乐,农家乐,121.390581,31.107158,上海市,上海市,闵行区
健康主题生态公园,旅游景点,公园,121.721113,31.070118,上海市,上海市,浦东新区
昆西社区生态公园,旅游景点,公园,121.134425,31.032662,上海市,上海市,松江区
上海长兴岛宠四季Pro宠物主题生态公园,休闲娱乐,其他,121.716265,31.396798,上海市,上海市,崇明区
绥德生态公园,旅游景点,公园,121.356903,31.269378,上海市,上海市,嘉定区
尚茂海棠园生态公园,旅游景点,公园,121.24589,31.178696,上海市,上海市,青浦区
泗沙林地生态公园,旅游景点,公园,121.255206,31.195793,上海市,上海市,青浦区
河泾生态公园,旅游景点,公园,121.187628,31.198946000000003,上海市,上海市,青浦区
碧云绿地·涟动生态公园,旅游景点,公园,121.616132,31.231884,上海市,上海市,浦东新区
姚明篮球公园,运动健身,篮球,121.403125,31.187189,上海市,上海市,闵行区
小昆山健康生态公园,旅游景点,公园,121.138469,31.035763000000003,上海市,上海市,松江区
青浦生态公园,购物消费,家电数码,121.117159,31.148868,上海市,上海市,青浦区
泥城鹤羽生态公园,旅游景点,公园,121.8156,30.909277000000003,上海市,上海市,浦东新区
亚马逊生态公园,休闲娱乐,其他,121.386613,31.107211,上海市,上海市,闵行区
紫金生态公园,旅游景点,公园,121.154822,30.885764,上海市,上海市,金山区
王贰狗的露营生态公园,运动健身,其他,121.089795,30.929011,上海市,上海市,松江区
一谔生态公园,旅游景点,公园,121.313346,30.752152,上海市,上海市,金山区
藕遇生态公园,旅游景点,公园,121.395336,30.826121,上海市,上海市,金山区
新场北岛生态公园,旅游景点,公园,121.669384,31.033731000000003,上海市,上海市,浦东新区
亭西村樱花主题生态公园,旅游景点,公园,121.301149,30.888437,上海市,上海市,金山区
洛克公园,购物消费,其他,121.488123,31.151608,上海市,上海市,浦东新区
九千泾生态公园,旅游景点,公园,121.20354,31.131801,上海市,上海市,松江区
坚强郊野森林湿地公园,旅游景点,公园,121.24579,31.187774,上海市,上海市,青浦区
恐龙梦生态公园,休闲娱乐,游乐场,121.564139,30.855754,上海市,上海市,奉贤区
上海东方金融小镇生态公园,休闲娱乐,其他,121.576784,30.892422,上海市,上海市,奉贤区
御叶路滨河口袋生态公园,旅游景点,公园,121.579946,31.156621,上海市,上海市,浦东新区
月牙生态公园,旅游景点,公园,121.009019,30.882997,上海市,上海市,金山区
大正体育生态公园,旅游景点,景点,121.418652,31.025752,上海市,上海市,闵行区
征梦者足球公园,运动健身,足球,121.416563,31.070164,上海市,上海市,闵行区
华泾生态公园,旅游景点,公园,121.452452,31.1215,上海市,上海市,徐汇区
锦梅生态公园,旅游景点,公园,121.421198,31.112116,上海市,上海市,闵行区
半马苏河生态公园,旅游景点,公园,121.395259,31.219706,上海市,上海市,普陀区
云岭生态公园,旅游景点,公园,121.378165,31.223313,上海市,上海市,普陀区
洛克生态公园,运动健身,其他,121.398785,31.272484,上海市,上海市,普陀区
OPARK体育公园,运动健身,其他,121.307008,31.248772,上海市,上海市,嘉定区
云飞数智生态公园,公司企业,公司,121.320278,31.254746,上海市,上海市,嘉定区
二环城市生态公园,旅游景点,其他,121.92074,30.887769,上海市,上海市,浦东新区
南汇新城城市生态公园,旅游景点,公园,121.924517,30.888896,上海市,上海市,浦东新区
二环城市生态公园,旅游景点,其他,121.92478,30.886619,上海市,上海市,浦东新区
二环城市生态公园,旅游景点,其他,121.920985,30.89101,上海市,上海市,浦东新区
二环城市生态公园,旅游景点,其他,121.921712,30.889748,上海市,上海市,浦东新区
临港生态公园,旅游景点,公园,121.915336,30.892747,上海市,上海市,浦东新区
泥城体育生态公园,旅游景点,公园,121.809665,30.904496,上海市,上海市,浦东新区
鹤坡园-健康生态公园,旅游景点,公园,121.641963,31.014417,上海市,上海市,浦东新区
胜道酷野国际卡丁车公园,运动健身,其他,121.491225,31.138803,上海市,上海市,浦东新区
宝联生态公园,旅游景点,公园,121.529738,31.271104,上海市,上海市,杨浦区
小林house足球生态公园,运动健身,足球,121.496234,31.353056,上海市,上海市,宝山区
杭桂绿地生态公园,旅游景点,公园,121.205677,31.273575,上海市,上海市,嘉定区
上海桃浦体育生态公园,运动健身,其他,121.349897,31.289769,上海市,上海市,普陀区
启动林生态公园,旅游景点,公园,121.357083,31.284119,上海市,上海市,普陀区
李子园生态公园,旅游景点,公园,121.383461,31.275582,上海市,上海市,普陀区
大柳树足球生态公园,旅游景点,公园,121.384012,31.277046,上海市,上海市,普陀区
网球纪网球生态公园,运动健身,网球,121.376544,31.328569,上海市,上海市,宝山区
10号足球公园,运动健身,足球,121.3738,31.327853,上海市,上海市,宝山区
五指青少年篮球公园,运动健身,篮球,121.375252,31.326061,上海市,上海市,宝山区
EACSY SKATEPARK滑板生态公园,运动健身,其他,121.360754,31.340024,上海市,上海市,宝山区
胡庄生态公园,旅游景点,公园,121.419179,31.352835,上海市,上海市,宝山区
梅陇南方生态公园,旅游景点,公园,121.397698,31.129224,上海市,上海市,闵行区
上海黄道婆纪念生态公园,旅游景点,公园,121.448724,31.124532,上海市,上海市,徐汇区
上海黄道婆纪念生态公园,旅游景点,景点,121.448789,31.124589,上海市,上海市,徐汇区
口袋生态公园,旅游景点,公园,121.441529,31.174629000000003,上海市,上海市,徐汇区
有氧生态公园,旅游景点,公园,121.44079,31.183237,上海市,上海市,徐汇区
菲林生态公园,生活服务,摄影打印,121.458993,31.210571,上海市,上海市,徐汇区
学习强国主题生态公园,旅游景点,公园,121.358849,31.252046,上海市,上海市,嘉定区
古城生态公园,旅游景点,公园,121.707393,31.195197,上海市,上海市,浦东新区
飞梦体育公园,运动健身,足球,121.53012,31.219417,上海市,上海市,浦东新区
迷乐生态公园,旅游景点,公园,121.529772,31.233964,上海市,上海市,浦东新区
外高桥自贸广场生态公园,旅游景点,广场,121.589605,31.348131,上海市,上海市,浦东新区
泗塘生态公园,旅游景点,其他,121.450347,31.338047,上海市,上海市,宝山区
北外滩航海生态公园,旅游景点,公园,121.497631,31.24774,上海市,上海市,虹口区
上海东方金融小镇生态公园,旅游景点,其他,121.576729,30.892392,上海市,上海市,奉贤区
光明生态公园,旅游景点,公园,121.523578,30.914688,上海市,上海市,奉贤区
上海之鱼-年丰生态公园,旅游景点,公园,121.494832,30.932543,上海市,上海市,奉贤区
邮佳生态公园,休闲娱乐,农家乐,121.695448,31.086466,上海市,上海市,浦东新区
唐镇老克勒足球生态公园,运动健身,足球,121.656139,31.196941,上海市,上海市,浦东新区
艾己耕生态公园,休闲娱乐,农家乐,121.73982,31.208544,上海市,上海市,浦东新区
上海金鹤利都市生态公园,休闲娱乐,农家乐,121.146147,31.27402,上海市,上海市,青浦区
春光生态公园,旅游景点,公园,121.357387,31.27488,上海市,上海市,普陀区
一森露营生态公园,旅游景点,其他,121.466782,31.343253,上海市,上海市,宝山区
奉浦四季生态公园,旅游景点,公园,121.469571,30.935608,上海市,上海市,奉贤区
奉浦四季生态公园,旅游景点,景点,121.469606,30.935559,上海市,上海市,奉贤区
819CLUB篮球公园,运动健身,其他,121.393266,31.080648,上海市,上海市,闵行区
上海鹏佰网球文化生态公园,公司企业,公司,121.385843,31.087977,上海市,上海市,闵行区
洛克公园,运动健身,其他,121.419308,31.253257,上海市,上海市,普陀区
梦清园人工湿地公园,旅游景点,公园,121.439845,31.249988,上海市,上海市,普陀区
洛克公园,运动健身,其他,121.273213,31.19147,上海市,上海市,青浦区
木兰生态公园,旅游景点,公园,121.53616,31.166227,上海市,上海市,浦东新区
飞梦体育公园,运动健身,其他,121.509863,31.204196000000003,上海市,上海市,浦东新区
华宜生态公园,旅游景点,公园,121.605272,31.284748,上海市,上海市,浦东新区
盘陀子生态公园,旅游景点,公园,121.248071,31.393704,上海市,上海市,嘉定区
静安青年体育生态公园,旅游景点,公园,121.434489,31.293444,上海市,上海市,静安区
牛尾巴足球公园,运动健身,足球,121.424733,31.302714,上海市,上海市,宝山区
洛克公园,运动健身,其他,121.472768,31.30798,上海市,上海市,虹口区
kc篮羽生态公园,运动健身,篮球,121.466773,31.322801,上海市,上海市,宝山区
煜冠Max体育生态公园,科教文化,培训单位,121.472035,31.395965,上海市,上海市,宝山区
洛克公园,购物消费,其他,121.473695,31.401057,上海市,上海市,宝山区
洛克公园,运动健身,其他,121.473688,31.401103,上海市,上海市,宝山区
foo'mart 東西公园,购物消费,其他,121.437154,31.190382,上海市,上海市,徐汇区
广场公园,交通设施,停车场,121.478303,31.226566,上海市,上海市,黄浦区
洛克生态公园,运动健身,篮球,121.428686,31.268265,上海市,上海市,普陀区
云朵生态公园,旅游景点,公园,121.493735,31.186564,上海市,上海市,浦东新区
古城公园,交通设施,公交站,121.493308,31.229373,上海市,上海市,黄浦区
ARCFOX极狐中心·上海浦东世纪生态公园,汽车相关,汽车销售,121.543589,31.20555,上海市,上海市,浦东新区
ARCFOX极狐中心·上海浦东世纪生态公园,汽车相关,汽车维修,121.543649,31.205528,上海市,上海市,浦东新区
KC篮羽公园,运动健身,其他,121.496592,31.264654,上海市,上海市,虹口区
洛克公园,购物消费,其他,121.492544,31.339275,上海市,上海市,宝山区
绿地生态公园,旅游景点,公园,121.370849,31.346613,上海市,上海市,宝山区
新境地生态公园,旅游景点,公园,121.475743,31.322094,上海市,上海市,宝山区
韶山路沪联路口袋生态公园,旅游景点,公园,121.365827,31.360331,上海市,上海市,宝山区
聚众滑雪X茸城青训滑雪公园,科教文化,培训单位,121.24038,31.056456,上海市,上海市,松江区
中影1929电影公园,休闲娱乐,电影院,121.364285,31.130842,上海市,上海市,闵行区
天钥桥路口袋生态公园,旅游景点,公园,121.441517,31.192432,上海市,上海市,徐汇区
静安生态公园,旅游景点,公园,121.446851,31.222032,上海市,上海市,静安区
曹家渡绿岛口袋生态公园,旅游景点,公园,121.427984,31.228828,上海市,上海市,静安区
马赫运动生态公园,运动健身,综合体育馆,121.412351,31.271544,上海市,上海市,宝山区
洛克公园,运动健身,综合体育馆,121.655926,31.213201,上海市,上海市,浦东新区
HuiPARK汇生态公园,运动健身,其他,121.527229,31.227377,上海市,上海市,浦东新区
NLC PARK新能源汽车生态公园,汽车相关,汽车销售,121.446013,31.337127,上海市,上海市,宝山区
史博特·运动生态公园,旅游景点,公园,121.519837,31.208092,上海市,上海市,浦东新区
史博特·运动生态公园,运动健身,其他,121.519805,31.208075,上海市,上海市,浦东新区
小象动悟公园,运动健身,其他,121.426877,31.280146,上海市,上海市,静安区
小小试驾生态公园,旅游景点,水族馆,121.373179,31.17495,上海市,上海市,闵行区
高东生态公园-高东体育主题公园,旅游景点,公园,121.637273,31.305145,上海市,上海市,浦东新区
绿洲生态公园,旅游景点,公园,121.597718,31.326761,上海市,上海市,浦东新区
庙港文化生态公园,旅游景点,公园,121.668796,31.273834,上海市,上海市,浦东新区
凤凰生态公园,旅游景点,公园,121.695707,31.389407,上海市,上海市,崇明区
博爱生态公园,旅游景点,公园,121.693921,31.393045,上海市,上海市,崇明区
连飞生态公园,旅游景点,其他,121.322269,31.323754,上海市,上海市,嘉定区
双拥主题生态公园,旅游景点,公园,121.275254,31.383528,上海市,上海市,嘉定区
复华生态公园,旅游景点,公园,121.274618,31.382756,上海市,上海市,嘉定区
满贯体育足球生态公园,运动健身,其他,121.248876,31.350281,上海市,上海市,嘉定区
南城墙生态公园,旅游景点,公园,121.254089,31.375717,上海市,上海市,嘉定区
平安主题生态公园,旅游景点,公园,121.248069,31.393629,上海市,上海市,嘉定区
桃浦公园,旅游景点,公园,121.392086,31.280684,上海市,上海市,普陀区
大华朗香公园,商务住宅,其他,121.407666,31.321916,上海市,上海市,宝山区
顾村公园,旅游景点,景点,121.368167,31.339278,上海市,上海市,宝山区
永和公园,旅游景点,公园,121.432471,31.290351,上海市,上海市,静安区
静安中环生态公园,旅游景点,公园,121.450035,31.292872,上海市,上海市,静安区
曲阳公园,旅游景点,公园,121.485571,31.286935,上海市,上海市,虹口区
江湾公园,旅游景点,公园,121.481916,31.305827,上海市,上海市,虹口区
彩虹湾公园,旅游景点,其他,121.477184,31.314253,上海市,上海市,虹口区
淞南公园,旅游景点,公园,121.486558,31.340959,上海市,上海市,宝山区
彭浦四季公园,旅游景点,公园,121.43575,31.314111,上海市,上海市,静安区
桥空间体育生态公园,旅游景点,公园,121.436189,31.343917,上海市,上海市,宝山区
TOGETHER FUN体育生态公园,旅游景点,公园,121.435041,31.345283,上海市,上海市,宝山区
FUNTOGETHER体育生态公园,旅游景点,公园,121.43646,31.344093,上海市,上海市,宝山区
上海科普生态公园,旅游景点,公园,121.434301,31.345847,上海市,上海市,宝山区
共和生态公园,旅游景点,公园,121.430569,31.332292,上海市,上海市,宝山区
BBC体育生态公园,运动健身,其他,121.440381,31.355628,上海市,上海市,宝山区
月浦镇庆安四村口袋生态公园,旅游景点,水族馆,121.43105,31.403659,上海市,上海市,宝山区
月浦生态公园,旅游景点,公园,121.428753,31.416515,上海市,上海市,宝山区
万佳鲜生态公园,休闲娱乐,农家乐,121.429597,31.418149,上海市,上海市,宝山区
顾村公园,交通设施,公交站,121.383518,31.349097,上海市,上海市,宝山区
顾村公园,交通设施,公交站,121.383448,31.349125,上海市,上海市,宝山区
滨水社区公园,旅游景点,公园,121.402063,31.360354,上海市,上海市,宝山区
罗溪生态公园,旅游景点,公园,121.351288,31.417989,上海市,上海市,宝山区
金山公园,旅游景点,公园,121.162424,30.892008,上海市,上海市,金山区
反弹蹦床公园,运动健身,其他,121.397674,31.131116,上海市,上海市,闵行区
月亮湾水上运动生态公园,运动健身,水上运动,121.476935,31.155935000000003,上海市,上海市,浦东新区
漕溪公园,旅游景点,公园,121.436072,31.171947,上海市,上海市,徐汇区
虹桥社区体育生态公园,旅游景点,公园,121.418047,31.200332000000003,上海市,上海市,长宁区
虹桥儿童友好生态公园,旅游景点,公园,121.418135,31.200398,上海市,上海市,长宁区
口袋生态公园,旅游景点,公园,121.430616,31.213227,上海市,上海市,长宁区
绍兴生态公园,旅游景点,公园,121.463441,31.209407,上海市,上海市,黄浦区
309口袋生态公园,旅游景点,水族馆,121.458439,31.209207000000003,上海市,上海市,徐汇区
淮海生态公园,旅游景点,公园,121.477528,31.223081,上海市,上海市,黄浦区
人民生态公园,旅游景点,公园,121.473158,31.232137,上海市,上海市,黄浦区
延中生态公园,旅游景点,公园,121.467055,31.222453,上海市,上海市,黄浦区
洛克公园,运动健身,篮球,121.420946,31.236105,上海市,上海市,普陀区
宜川公园,旅游景点,公园,121.440866,31.260303,上海市,上海市,普陀区
哈密生态公园,旅游景点,公园,121.373992,31.213532,上海市,上海市,长宁区
长风公园,交通设施,公交站,121.400522,31.232085,上海市,上海市,普陀区
梅川生态公园,旅游景点,公园,121.392875,31.245251,上海市,上海市,普陀区
蔓趣生态公园,旅游景点,公园,121.500423,31.174312,上海市,上海市,浦东新区
崇明生态公园,生活服务,其他,121.584349,31.246522,上海市,上海市,浦东新区
古城生态公园,旅游景点,公园,121.493839,31.228434,上海市,上海市,黄浦区
古城公园,交通设施,公交站,121.494621,31.229702,上海市,上海市,黄浦区
内江公园,旅游景点,公园,121.544977,31.286854,上海市,上海市,杨浦区
民星公园,旅游景点,公园,121.535074,31.314047,上海市,上海市,杨浦区
李秋平篮球公园,运动健身,篮球,121.610352,31.292084,上海市,上海市,浦东新区
杨园体育生态公园,旅游景点,公园,121.634209,31.314862,上海市,上海市,浦东新区
小飞人篮球公园,运动健身,篮球,121.491913,31.393622,上海市,上海市,宝山区
汇龙潭公园,旅游景点,公园,121.253928,31.381076,上海市,上海市,嘉定区
华灵生态公园,旅游景点,公园,121.422742,31.278174,上海市,上海市,宝山区
岭南公园,旅游景点,公园,121.456439,31.314664,上海市,上海市,静安区
泗塘生态公园,旅游景点,公园,121.450238,31.338139,上海市,上海市,宝山区
黑白篮球公园,运动健身,篮球,121.360059,31.36061,上海市,上海市,宝山区
青于篮篮球公园,运动健身,其他,121.455818,31.183418,上海市,上海市,徐汇区
中山公园,交通设施,公交站,121.419064,31.218749,上海市,上海市,长宁区
中山公园,交通设施,公交站,121.419063,31.218761,上海市,上海市,长宁区
太平桥生态公园,旅游景点,公园,121.476884,31.219688,上海市,上海市,黄浦区
虹桥生态公园,旅游景点,公园,121.40553,31.206117000000003,上海市,上海市,长宁区
嘭嘭体育生态公园,旅游景点,其他,121.350846,31.155103,上海市,上海市,闵行区
滨江生态公园,旅游景点,公园,121.496526,31.236253,上海市,上海市,浦东新区
东平国家森林湿地公园,旅游景点,景点,121.480845,31.683712,上海市,上海市,崇明区
奉鹰体育生态公园,运动健身,综合体育馆,121.446256,30.920264,上海市,上海市,奉贤区
运石河生态公园,旅游景点,公园,121.501574,30.841498,上海市,上海市,奉贤区
上海安吉纳足球生态公园,运动健身,足球,121.468669,31.342559,上海市,上海市,宝山区
美兰湖中央公园,旅游景点,公园,121.349845,31.394575,上海市,上海市,宝山区
万科青藤公园,商务住宅,其他,121.470186,31.034452,上海市,上海市,闵行区
洛克公园,运动健身,其他,121.627679,31.214615,上海市,上海市,浦东新区
由度空间移动互联网数据生态公园,商务住宅,产业园,121.615713,31.250554,上海市,上海市,浦东新区
金桥镇樱花生态公园,旅游景点,公园,121.616623,31.268031,上海市,上海市,浦东新区
飞梦足球生态公园,运动健身,其他,121.514538,31.2209,上海市,上海市,浦东新区
CBD中央生态公园,旅游景点,公园,121.431908,31.157335,上海市,上海市,徐汇区
不夜城生态公园,旅游景点,公园,121.461065,31.244618,上海市,上海市,静安区
帐篷搭建点郊野生态公园,旅游景点,公园,121.253269,30.960999,上海市,上海市,松江区
上海西郊淀山湖湿地公园,旅游景点,公园,121.0075,31.070935,上海市,上海市,青浦区
淀山湖生态公园,运动健身,其他,121.010233,31.133051,上海市,上海市,青浦区
上海都市菜园-营地生态公园,旅游景点,公园,121.59006,30.863818,上海市,上海市,奉贤区
上海嘻哈路亚生态公园,休闲娱乐,农家乐,121.616905,30.944116,上海市,上海市,奉贤区
合欢生态公园,旅游景点,公园,121.416469,31.67663,上海市,上海市,崇明区
金山卫文化生态公园,旅游景点,公园,121.32708,30.734973,上海市,上海市,金山区
勇者体育生态公园,运动健身,其他,121.434723,30.918058,上海市,上海市,奉贤区
待问生态公园,旅游景点,公园,121.425101,30.98401,上海市,上海市,奉贤区
Best U光合滑板生态公园,运动健身,其他,121.428641,31.061344,上海市,上海市,闵行区
骑艺摩托生态公园,休闲娱乐,其他,121.465896,31.049875,上海市,上海市,闵行区
百蒂凯现代农业生态公园,休闲娱乐,农家乐,121.232362,31.265664,上海市,上海市,嘉定区
百蒂凯现代农业生态公园,商务住宅,产业园,121.23235,31.265682,上海市,上海市,嘉定区
上海安亭农业生态公园,公司企业,农林牧渔,121.232353,31.266731,上海市,上海市,嘉定区
哇咔星球青浦南门体育生态公园,运动健身,其他,121.10577,31.131347,上海市,上海市,青浦区
青青夏阳禾生态公园,公司企业,公司,121.133211,31.132844,上海市,上海市,青浦区
丰泰体育生态公园,旅游景点,公园,121.538911,31.085901,上海市,上海市,闵行区
AITO授权用户中心·上海世纪生态公园,汽车相关,其他,121.571613,31.226097,上海市,上海市,浦东新区
AITO授权用户中心·上海世纪生态公园,汽车相关,汽车销售,121.571628,31.226115,上海市,上海市,浦东新区
唐丰生态公园,旅游景点,公园,121.646649,31.2026,上海市,上海市,浦东新区
唐镇生态公园,旅游景点,公园,121.646546,31.199174,上海市,上海市,浦东新区
碧云绿地•云天湖生态公园,旅游景点,公园,121.637601,31.231154,上海市,上海市,浦东新区
碧云绿地盈动生态公园,旅游景点,公园,121.622551,31.232001,上海市,上海市,浦东新区
大桥生态公园,旅游景点,公园,121.541736,31.256723,上海市,上海市,杨浦区
远香湖党建主题生态公园,旅游景点,公园,121.265321,31.349132,上海市,上海市,嘉定区
生态生态公园-马陆葡萄主题生态公园,旅游景点,公园,121.303813,31.378733,上海市,上海市,嘉定区
诺贝尔科技生态公园,旅游景点,公园,121.358728,31.401592,上海市,上海市,宝山区
中央公园,生活服务,公厕,121.228214,31.034635,上海市,上海市,松江区
川上美集滨江文创生态公园,旅游景点,公园,121.422782,30.996768,上海市,上海市,闵行区
克莱攀岩生态公园,运动健身,其他,121.411578,31.132043,上海市,上海市,闵行区
力波生态公园,旅游景点,公园,121.41567,31.133226,上海市,上海市,闵行区
乐动力西岸风之谷体育生态公园,运动健身,其他,121.458373,31.131943,上海市,上海市,徐汇区
徐汇滨江风之谷体育生态公园,旅游景点,公园,121.457982,31.132574,上海市,上海市,徐汇区
国展体育生态公园,运动健身,羽毛球,121.485813,31.180622,上海市,上海市,浦东新区
世博公园,生活服务,公厕,121.48329,31.186629,上海市,上海市,浦东新区
江桥镇丽江生态公园,旅游景点,公园,121.335039,31.268255,上海市,上海市,嘉定区
小海狮篮球公园,运动健身,篮球,121.230782,31.247001,上海市,上海市,青浦区
云朵生态公园,旅游景点,公园,121.120903,31.141799,上海市,上海市,青浦区
如心生态公园,旅游景点,公园,121.103938,31.143305,上海市,上海市,青浦区
晨兴生态公园,旅游景点,公园,121.103191,31.14294,上海市,上海市,青浦区
宜嘉园·浦江沪谚文化生态公园,旅游景点,公园,121.53521,31.050957,上海市,上海市,闵行区
张江本草生态公园,休闲娱乐,农家乐,121.631201,31.17058,上海市,上海市,浦东新区
罗泾生态公园,旅游景点,公园,121.328898,31.48063,上海市,上海市,宝山区
育音堂音乐生态公园,旅游景点,水族馆,121.422205,31.219085,上海市,上海市,长宁区
育音堂音乐生态公园,休闲娱乐,其他,121.422265,31.21912,上海市,上海市,长宁区
梦核生态公园,旅游景点,公园,121.424027,31.228266,上海市,上海市,长宁区
AIRPARK爱野屋顶运动生态公园,购物消费,其他,121.481432,31.208035,上海市,上海市,黄浦区
1929电影公园,休闲娱乐,电影院,121.094701,31.143901,上海市,上海市,青浦区
